id,job,place,lat,lng,supplydemand,cost
1,Tester,KalyanNagar,13.0254223821,77.6407241821,1,850
1,Tester,Jayamahal,13.0045159307,77.5982379913,10,513
1,Tester,Kengeri,12.9253481646,77.4841690063,1,850
1,Tester,KasturbaRoad,12.9737802491,77.5948905945,1,946
1,Tester,KumaraParkEast,12.9821858949,77.5864362717,1,903
1,Tester,DoddaballapuraMainRoad,13.1393732508,77.5690984726,1,814
1,Tester,Thyagarajanagar,12.9318732425,77.5670814514,10,564
1,Tester,Kanakapura,12.5451801735,77.4165344238,11,772
1,Tester,BVKIyengarRoad,12.97217018,77.5766944885,1,932
1,Tester,Vijayanagar,12.9709364837,77.5320625305,10,504
1,Tester,K.HRoad,12.9595192748,77.5933027267,11,709
1,Tester,VarthurRoad,12.95688446,77.704668045,1,824
1,Tester,CrescentRoad,12.9889185703,77.5822520256,11,661
1,Tester,Sarjapur,12.8578705482,77.7862930298,10,648
1,Tester,Lingarajapuram,13.0085301061,77.6304674149,1,934
1,Tester,St.MarksRoad,12.9747421035,77.6011991501,11,783
1,Tester,HAL2ndStage,12.9737802491,77.6434707642,11,731
1,Tester,Kalasipalyam,12.9606066506,77.5814151764,1,806
1,Tester,KempegowdaRoad,12.9744493656,77.5778532028,11,686
1,Tester,Sadhashivnagar,13.0105789831,77.5827884674,1,831
1,Tester,AshokNagar,12.9737802491,77.5868225098,10,619
1,Tester,Subramanyapura,12.8988278244,77.5406455994,10,541
1,Tester,LavelleRoad,12.9682599689,77.5963068008,11,673
1,Tester,DickensonRoad,12.9781712935,77.6153182983,11,739
1,Tester,AustinTown,12.9617672099,77.6145994663,10,500
1,Tester,Nagashettyhalli,13.0417699978,77.5734329224,10,552
1,Tester,CookeTown,12.9737802491,77.5868225098,10,647
1,Tester,Kaggalipura,12.9737802491,77.5868225098,11,746
1,Tester,Srirampuram,12.9876640483,77.5651931763,11,721
1,Tester,Carmelram,12.903178357,77.7114486694,11,757
1,Tester,AirportRoad,12.9662525639,77.6259613037,10,559
1,Tester,Bidadi,12.9737802491,77.5868225098,10,556
1,Tester,Viveknagar,12.9534549766,77.6199531555,11,674
1,Tester,VictoriaRoad,12.9653115873,77.6176357269,10,608
1,Tester,Dasarahalli,13.0503823736,77.5123214722,11,760
1,Tester,CunninghamRoad,12.98640952,77.59557724,11,748
1,Tester,K.GCircle,12.9741984471,77.5787115097,1,824
1,Tester,JPNagar,12.9133850788,77.5876808167,11,696
1,Tester,MagrathRoad,12.9703928189,77.6110696793,1,938
1,Tester,HSRLayout,12.9112099107,77.6348876953,1,837
1,Tester,TumkurRoad,13.0349551383,77.5296163559,1,896
1,Tester,KanakapuraMainRoad,12.946010326,77.5767588615,1,911
1,Tester,Sultanpalya,13.0223701502,77.602250576,11,687
1,Tester,MysoreRoad,12.9737802491,77.5868225098,10,578
1,Tester,VittalMallyaRoad,12.9692218447,77.5951051712,1,806
1,Tester,Kadubeesanahalli,12.9391091871,77.696814537,1,850
1,Tester,Bilekahalli,12.8974055185,77.6106834412,11,724
1,Tester,Chikkabanavara,13.0761340949,77.5078582764,1,851
1,Tester,BalajiNagar,12.9261010669,77.6083660126,11,794
1,Tester,HAL3rdStage,12.9684272519,77.6544570923,11,697
1,Tester,Nagasandra,13.0390942471,77.4902629852,10,626
1,Tester,InfantryRoad,12.9804295147,77.6042890549,10,510
1,Tester,ElectronicCity,12.8442724252,77.6700782776,1,821
1,Tester,BangaloreUniversity,12.9543750866,77.509059906,11,786
1,Tester,Vyalikaval,13.0022161134,77.5744628906,10,591
1,Tester,Domlur,12.9635759988,77.6371192932,11,687
1,Tester,SankeyRoad,13.0056449241,77.5802135468,11,759
1,Tester,SahakaraNagar,13.0646381226,77.5862216949,1,814
1,Tester,RMV2ndStage,13.0405157433,77.5658798218,11,796
1,Tester,DollarsColony,13.0381326422,77.5624895096,10,604
1,Tester,HALAirportRoad,12.9597283859,77.655916214,11,735
1,Tester,QueensRoad,12.9812240692,77.5973796844,1,887
1,Tester,Kathriguppe,12.9300328532,77.5577259064,11,771
1,Tester,TanneryRoad,12.9737802491,77.5868225098,10,608
1,Tester,NewBELRoad,13.0264676584,77.5717163086,1,833
1,Tester,CVRamanNagar,12.9844858977,77.661151886,10,645
1,Tester,Hoskote,13.070365274,77.7888679504,11,796
1,Tester,Virgonagar,13.03733827,77.7303314209,1,802
1,Tester,Sanjaynagar,13.0383416871,77.582359314,1,897
1,Tester,Gandhinagar,12.9824786237,77.5768661499,1,915
1,Tester,DispensaryRoad,12.957783646,77.576469183,10,633
1,Tester,GangaNagar,13.0215339157,77.5881099701,11,678
1,Tester,DJHalli,12.9737802491,77.5868225098,10,536
1,Tester,K.GNagar,12.9737802491,77.5868225098,11,717
1,Tester,Rajkunte,13.2967523618,77.5511169434,10,545
1,Tester,KumaraKrupa,12.9737802491,77.5868225098,1,884
1,Tester,Chamarajpet,12.9737802491,77.5868225098,1,895
1,Tester,HRBRLayout,13.0160983226,77.6466464996,10,584
1,Tester,K.RMarket,12.9643287856,77.5783038139,10,593
1,Tester,VVPuram,12.9522002758,77.5777244568,10,554
1,Tester,Murugeshpalya,12.9601466076,77.657289505,10,627
1,Tester,Nagarbhavi,12.9721074498,77.5142097473,11,760
1,Tester,BrigadeRoad,12.9745748248,77.6076793671,1,814
1,Tester,M.GRoad,12.9743657261,77.6130008698,1,837
1,Tester,PalaceGuttahalli,12.9960274083,77.5748920441,1,922
1,Tester,NandidurgaRoad,12.9996026588,77.6000833511,11,682
1,Tester,Bellandur,12.9267703115,77.6498222351,1,923
1,Tester,LangfordGardens,12.9629904963,77.5998687744,11,793
1,Tester,Shanthinagar,12.9543750866,77.5979804993,11,665
1,Tester,KasturiNagar,13.0058958108,77.6576328278,10,595
1,Tester,Kodihalli,12.9604811844,77.6465606689,1,853
1,Tester,HaudinRoad,12.9737802491,77.5868225098,1,855
1,Tester,KRRoad,12.9319987231,77.5737333298,1,941
1,Tester,St.JohnsRoad,12.9813077064,77.6117134094,1,868
1,Tester,NewThippasandra,12.9776276446,77.6525688171,11,651
1,Tester,Gavipuram,12.9737802491,77.5868225098,10,649
1,Tester,MahalakshmiLayout,13.0206140544,77.5499153137,1,834
1,Tester,RichmondTown,12.963994214,77.603302002,10,632
1,Tester,Doddanekundi,12.9759548712,77.6901626587,1,950
1,Tester,Hesaraghatta,13.1644052736,77.4862289429,10,594
1,Tester,ChurchStreet,12.9754216724,77.6037955284,1,874
1,Tester,PalaceCrossRoad,12.9971773483,77.5873160362,10,564
1,Tester,St.ThomasTown,12.9737802491,77.5868225098,1,821
1,Tester,CommercialStreet,12.9830640803,77.6071643829,1,916
1,Tester,Nayandahalli,12.9386491044,77.5232219696,10,530
1,Tester,Agaram,12.9570517506,77.6347160339,1,863
1,Tester,Kothanur,13.0602486102,77.6412391663,1,881
1,Tester,Ejipura,12.9398202224,77.6299953461,1,866
1,Tester,OldMadrasRoad,12.9872458729,77.6484918594,10,607
1,Tester,HanumanthaNagar,12.9737802491,77.5868225098,10,572
1,Tester,PadmanabhaNagar,12.9199104693,77.5541210175,1,919
1,Tester,ArakereGate,12.8906076212,77.5986242294,11,749
1,Tester,Ramanagaram,12.9737802491,77.5868225098,10,580
1,Tester,RaceCourseRoad,12.9615999224,77.6153826714,1,810
1,Tester,Vidyaranyapura,13.0818191778,77.5581550598,10,506
1,Tester,Rajanukunte,13.1760637235,77.5624895096,10,580
1,Tester,Vasanthanagar,12.9928493647,77.5916290283,1,886
1,Tester,Krishnarajapuram,13.0027178935,77.6778030396,10,550
1,Tester,RichmondRoad,12.9656670678,77.6033234596,1,917
1,Tester,Malleswaram,13.0085719201,77.5643348694,10,642
1,Tester,Kumbalgodu,12.959226519,77.5697851181,11,679
1,Tester,CoxTown,12.9977418624,77.6199102402,1,900
1,Tester,Devanhalli,13.2466293486,77.7083587646,11,727
1,Tester,Maruthisevanagar,13.0002089827,77.6329994202,10,578
1,Tester,Byatarayanapura,13.0622552541,77.6065635681,11,749
1,Tester,ResidencyRoad,12.9723583704,77.6077651978,11,658
1,Tester,DoubleRoad,12.9737802491,77.5868225098,11,743
1,Tester,Bhoopasandra,12.9737802491,77.5868225098,10,530
1,Tester,Ulsoor,12.9833149898,77.6148033142,11,774
1,Tester,JCRoad,12.9566126124,77.5816297531,10,524
1,Tester,MillersRoad,12.9874967782,77.5911140442,10,531
1,Tester,HosurRoad,12.9217509333,77.6199531555,10,538
1,Tester,FrazerTown,12.9984109144,77.6148462296,1,851
1,Tester,Nagawara,12.9737802491,77.5868225098,10,510
1,Tester,Shampur,12.9737802491,77.5868225098,10,504
1,Tester,LangfordRoad,12.9619449528,77.5989031792,10,553
1,Tester,ChandraLayout,12.9496072074,77.5188446045,10,608
1,Tester,WheelersRoad,12.9961528566,77.6172065735,11,746
1,Tester,KumaraParkWest,12.9737802491,77.5868225098,1,910
1,Tester,Viswaneedam,13.0115825085,77.5102615356,1,919
1,Tester,RTNagar,13.0209485498,77.5967788696,1,935
1,Tester,Bommanahalli,12.9080307849,77.6287078857,11,668
1,Tester,MuseumRoad,12.9737802491,77.5868225098,11,785
1,Tester,PeenyaIndustrialArea,13.0346624715,77.516784668,11,744
1,Tester,Mahadevapura,12.9936856959,77.692565918,11,752
1,Tester,MainGuardCrossRoad,12.9798858708,77.6067352295,10,503
1,Tester,WaltonRoad,12.9724211005,77.5982272625,10,615
1,Tester,Puttenahalli,12.899497142,77.5820159912,1,888
1,Tester,Chickpet,12.9707692023,77.57188797,11,678
1,Tester,JCNagar,13.0069829837,77.592959404,1,898
1,Tester,CubbonPark,12.9737802491,77.5868225098,1,858
1,Tester,Konanakunte,12.8834330247,77.564163208,10,607
1,Tester,Marathahalli,12.9543750866,77.7011489868,10,569
1,Tester,Mathikere,13.0257986821,77.5670814514,1,933
1,Tester,Madivala,12.9215836189,77.6280212402,11,738
1,Tester,JeevanbheemaNagar,12.9648306423,77.661151886,10,591
1,Tester,Jayanagar,12.9324588181,77.5818443298,10,584
1,Tester,Indiranagar,12.9729438509,77.6393508911,10,517
1,Tester,RajaRajeshwariNagar,12.9127157983,77.510175705,10,527
1,Tester,HBRLayout,13.0273038762,77.6271629333,1,803
1,Tester,Jalahalli,13.0535596792,77.5420188904,10,643
1,Tester,BangaloreCBD,12.9737802491,77.5868225098,10,575
1,Tester,MissionRoad,12.9737802491,77.5868225098,1,864
1,Tester,ArabicCollege,13.032153884,77.6226997375,1,841
1,Tester,Sadahalli,13.2116624326,77.6461315155,11,765
1,Tester,Whitefield,12.9794676823,77.7241516113,10,594
1,Tester,BTMLayout,12.9147236343,77.6163482666,10,558
1,Tester,Rajajinagar,12.9861586136,77.5530052185,11,695
1,Tester,Jakkur,13.0781406098,77.5960922241,11,722
1,Tester,BannerghattaRoad,12.8333933969,77.5887107849,10,538
1,Tester,Seshadripuram,12.9881658579,77.5873374939,1,883
1,Tester,Shivajinagar,12.9885840317,77.6048469543,1,880
1,Tester,WilsonGarden,12.9443373401,77.6002120972,1,921
1,Tester,Koramangala,12.9297818899,77.6214981079,1,859
1,Tester,Kammanahalli,13.0266349022,77.6356601715,11,657
1,Tester,Hebbal,13.0353314238,77.5988388062,10,541
1,Tester,Laggere,13.0166000747,77.5212478638,1,916
1,Tester,Banashankari,12.9488543761,77.5457954407,11,736
1,Tester,JnanaBharathi,12.945341133,77.5023651123,11,759
1,Tester,Basaveshwaranagar,12.995191085,77.5447654724,10,504
1,Tester,Brookefield,12.9647469996,77.7232933044,1,862
1,Tester,SanjeeviniNagar,12.9737802491,77.5868225098,10,511
1,Tester,BensonTown,12.9976164149,77.6039886475,10,559
1,Tester,Basavangudi,12.9297400627,77.5709867477,10,545
1,Tester,Yeshwanthpur,13.0292271666,77.5456237793,11,779
1,Tester,Vimanapura,12.9583482495,77.6679754257,10,559
1,Tester,Yelahanka,13.1018831282,77.599697113,11,786
1,Tester,Adugodi,12.9475996521,77.606306076,11,688
1,Tester,Kadugodi,13.0010452891,77.7262973785,1,831
1,Tester,Hennur,13.03733827,77.6517105103,1,811
1,Tester,KumaraswamyLayout,12.9060228951,77.5597000122,10,608
1,Tester,Kamakshipalya,12.9890022048,77.5219345093,1,803
1,Tester,HaralurRoad,12.905813739,77.6628255844,1,874
1,Tester,Banaswadi,13.0181889494,77.6450157166,1,922
2,Engineer,KalyanNagar,13.0254223821,77.6407241821,10,756
2,Engineer,Jayamahal,13.0045159307,77.5982379913,1,1003
2,Engineer,Kengeri,12.9253481646,77.4841690063,11,814
2,Engineer,KasturbaRoad,12.9737802491,77.5948905945,10,682
2,Engineer,KumaraParkEast,12.9821858949,77.5864362717,1,958
2,Engineer,DoddaballapuraMainRoad,13.1393732508,77.5690984726,1,987
2,Engineer,Thyagarajanagar,12.9318732425,77.5670814514,11,806
2,Engineer,Kanakapura,12.5451801735,77.4165344238,11,929
2,Engineer,BVKIyengarRoad,12.97217018,77.5766944885,11,927
2,Engineer,Vijayanagar,12.9709364837,77.5320625305,10,647
2,Engineer,K.HRoad,12.9595192748,77.5933027267,11,907
2,Engineer,VarthurRoad,12.95688446,77.704668045,10,721
2,Engineer,CrescentRoad,12.9889185703,77.5822520256,11,849
2,Engineer,Sarjapur,12.8578705482,77.7862930298,1,1076
2,Engineer,Lingarajapuram,13.0085301061,77.6304674149,1,1054
2,Engineer,St.MarksRoad,12.9747421035,77.6011991501,10,703
2,Engineer,HAL2ndStage,12.9737802491,77.6434707642,10,744
2,Engineer,Kalasipalyam,12.9606066506,77.5814151764,11,814
2,Engineer,KempegowdaRoad,12.9744493656,77.5778532028,11,844
2,Engineer,Sadhashivnagar,13.0105789831,77.5827884674,1,998
2,Engineer,AshokNagar,12.9737802491,77.5868225098,1,1066
2,Engineer,Subramanyapura,12.8988278244,77.5406455994,1,1021
2,Engineer,LavelleRoad,12.9682599689,77.5963068008,11,801
2,Engineer,DickensonRoad,12.9781712935,77.6153182983,1,1097
2,Engineer,AustinTown,12.9617672099,77.6145994663,10,658
2,Engineer,Nagashettyhalli,13.0417699978,77.5734329224,10,709
2,Engineer,CookeTown,12.9737802491,77.5868225098,11,782
2,Engineer,Kaggalipura,12.9737802491,77.5868225098,1,951
2,Engineer,Srirampuram,12.9876640483,77.5651931763,1,1077
2,Engineer,Carmelram,12.903178357,77.7114486694,10,648
2,Engineer,AirportRoad,12.9662525639,77.6259613037,10,602
2,Engineer,Bidadi,12.9737802491,77.5868225098,10,614
2,Engineer,Viveknagar,12.9534549766,77.6199531555,10,655
2,Engineer,VictoriaRoad,12.9653115873,77.6176357269,1,1083
2,Engineer,Dasarahalli,13.0503823736,77.5123214722,1,1054
2,Engineer,CunninghamRoad,12.98640952,77.59557724,1,1009
2,Engineer,K.GCircle,12.9741984471,77.5787115097,10,616
2,Engineer,JPNagar,12.9133850788,77.5876808167,10,609
2,Engineer,MagrathRoad,12.9703928189,77.6110696793,10,649
2,Engineer,HSRLayout,12.9112099107,77.6348876953,11,860
2,Engineer,TumkurRoad,13.0349551383,77.5296163559,10,740
2,Engineer,KanakapuraMainRoad,12.946010326,77.5767588615,11,860
2,Engineer,Sultanpalya,13.0223701502,77.602250576,11,817
2,Engineer,MysoreRoad,12.9737802491,77.5868225098,10,624
2,Engineer,VittalMallyaRoad,12.9692218447,77.5951051712,1,999
2,Engineer,Kadubeesanahalli,12.9391091871,77.696814537,11,785
2,Engineer,Bilekahalli,12.8974055185,77.6106834412,11,802
2,Engineer,Chikkabanavara,13.0761340949,77.5078582764,10,725
2,Engineer,BalajiNagar,12.9261010669,77.6083660126,1,1064
2,Engineer,HAL3rdStage,12.9684272519,77.6544570923,11,885
2,Engineer,Nagasandra,13.0390942471,77.4902629852,10,709
2,Engineer,InfantryRoad,12.9804295147,77.6042890549,1,964
2,Engineer,ElectronicCity,12.8442724252,77.6700782776,10,657
2,Engineer,BangaloreUniversity,12.9543750866,77.509059906,11,844
2,Engineer,Vyalikaval,13.0022161134,77.5744628906,10,604
2,Engineer,Domlur,12.9635759988,77.6371192932,11,772
2,Engineer,SankeyRoad,13.0056449241,77.5802135468,10,686
2,Engineer,SahakaraNagar,13.0646381226,77.5862216949,1,955
2,Engineer,RMV2ndStage,13.0405157433,77.5658798218,1,954
2,Engineer,DollarsColony,13.0381326422,77.5624895096,1,995
2,Engineer,HALAirportRoad,12.9597283859,77.655916214,1,1033
2,Engineer,QueensRoad,12.9812240692,77.5973796844,11,861
2,Engineer,Kathriguppe,12.9300328532,77.5577259064,10,650
2,Engineer,TanneryRoad,12.9737802491,77.5868225098,1,1064
2,Engineer,NewBELRoad,13.0264676584,77.5717163086,11,802
2,Engineer,CVRamanNagar,12.9844858977,77.661151886,1,1087
2,Engineer,Hoskote,13.070365274,77.7888679504,1,1011
2,Engineer,Virgonagar,13.03733827,77.7303314209,11,821
2,Engineer,Sanjaynagar,13.0383416871,77.582359314,11,892
2,Engineer,Gandhinagar,12.9824786237,77.5768661499,11,897
2,Engineer,DispensaryRoad,12.957783646,77.576469183,11,823
2,Engineer,GangaNagar,13.0215339157,77.5881099701,1,1025
2,Engineer,DJHalli,12.9737802491,77.5868225098,1,977
2,Engineer,K.GNagar,12.9737802491,77.5868225098,10,627
2,Engineer,Rajkunte,13.2967523618,77.5511169434,1,951
2,Engineer,KumaraKrupa,12.9737802491,77.5868225098,1,1006
2,Engineer,Chamarajpet,12.9737802491,77.5868225098,1,997
2,Engineer,HRBRLayout,13.0160983226,77.6466464996,11,888
2,Engineer,K.RMarket,12.9643287856,77.5783038139,10,620
2,Engineer,VVPuram,12.9522002758,77.5777244568,11,786
2,Engineer,Murugeshpalya,12.9601466076,77.657289505,1,1036
2,Engineer,Nagarbhavi,12.9721074498,77.5142097473,11,866
2,Engineer,BrigadeRoad,12.9745748248,77.6076793671,11,909
2,Engineer,M.GRoad,12.9743657261,77.6130008698,11,912
2,Engineer,PalaceGuttahalli,12.9960274083,77.5748920441,10,653
2,Engineer,NandidurgaRoad,12.9996026588,77.6000833511,10,689
2,Engineer,Bellandur,12.9267703115,77.6498222351,11,790
2,Engineer,LangfordGardens,12.9629904963,77.5998687744,11,820
2,Engineer,Shanthinagar,12.9543750866,77.5979804993,11,813
2,Engineer,KasturiNagar,13.0058958108,77.6576328278,11,885
2,Engineer,Kodihalli,12.9604811844,77.6465606689,1,998
2,Engineer,HaudinRoad,12.9737802491,77.5868225098,1,1004
2,Engineer,KRRoad,12.9319987231,77.5737333298,1,1065
2,Engineer,St.JohnsRoad,12.9813077064,77.6117134094,11,852
2,Engineer,NewThippasandra,12.9776276446,77.6525688171,1,1098
2,Engineer,Gavipuram,12.9737802491,77.5868225098,1,976
2,Engineer,MahalakshmiLayout,13.0206140544,77.5499153137,1,981
2,Engineer,RichmondTown,12.963994214,77.603302002,11,929
2,Engineer,Doddanekundi,12.9759548712,77.6901626587,11,771
2,Engineer,Hesaraghatta,13.1644052736,77.4862289429,10,734
2,Engineer,ChurchStreet,12.9754216724,77.6037955284,1,1082
2,Engineer,PalaceCrossRoad,12.9971773483,77.5873160362,10,704
2,Engineer,St.ThomasTown,12.9737802491,77.5868225098,10,700
2,Engineer,CommercialStreet,12.9830640803,77.6071643829,10,721
2,Engineer,Nayandahalli,12.9386491044,77.5232219696,1,1088
2,Engineer,Agaram,12.9570517506,77.6347160339,11,799
2,Engineer,Kothanur,13.0602486102,77.6412391663,11,876
2,Engineer,Ejipura,12.9398202224,77.6299953461,11,827
2,Engineer,OldMadrasRoad,12.9872458729,77.6484918594,1,1042
2,Engineer,HanumanthaNagar,12.9737802491,77.5868225098,1,966
2,Engineer,PadmanabhaNagar,12.9199104693,77.5541210175,10,680
2,Engineer,ArakereGate,12.8906076212,77.5986242294,1,937
2,Engineer,Ramanagaram,12.9737802491,77.5868225098,10,665
2,Engineer,RaceCourseRoad,12.9615999224,77.6153826714,10,639
2,Engineer,Vidyaranyapura,13.0818191778,77.5581550598,11,820
2,Engineer,Rajanukunte,13.1760637235,77.5624895096,1,999
2,Engineer,Vasanthanagar,12.9928493647,77.5916290283,10,762
2,Engineer,Krishnarajapuram,13.0027178935,77.6778030396,1,1025
2,Engineer,RichmondRoad,12.9656670678,77.6033234596,1,962
2,Engineer,Malleswaram,13.0085719201,77.5643348694,1,1058
2,Engineer,Kumbalgodu,12.959226519,77.5697851181,11,873
2,Engineer,CoxTown,12.9977418624,77.6199102402,10,634
2,Engineer,Devanhalli,13.2466293486,77.7083587646,10,642
2,Engineer,Maruthisevanagar,13.0002089827,77.6329994202,11,837
2,Engineer,Byatarayanapura,13.0622552541,77.6065635681,11,891
2,Engineer,ResidencyRoad,12.9723583704,77.6077651978,1,1076
2,Engineer,DoubleRoad,12.9737802491,77.5868225098,10,609
2,Engineer,Bhoopasandra,12.9737802491,77.5868225098,10,729
2,Engineer,Ulsoor,12.9833149898,77.6148033142,11,808
2,Engineer,JCRoad,12.9566126124,77.5816297531,10,746
2,Engineer,MillersRoad,12.9874967782,77.5911140442,11,793
2,Engineer,HosurRoad,12.9217509333,77.6199531555,1,978
2,Engineer,FrazerTown,12.9984109144,77.6148462296,1,1024
2,Engineer,Nagawara,12.9737802491,77.5868225098,10,696
2,Engineer,Shampur,12.9737802491,77.5868225098,1,954
2,Engineer,LangfordRoad,12.9619449528,77.5989031792,1,1039
2,Engineer,ChandraLayout,12.9496072074,77.5188446045,11,780
2,Engineer,WheelersRoad,12.9961528566,77.6172065735,1,1037
2,Engineer,KumaraParkWest,12.9737802491,77.5868225098,10,753
2,Engineer,Viswaneedam,13.0115825085,77.5102615356,11,780
2,Engineer,RTNagar,13.0209485498,77.5967788696,10,697
2,Engineer,Bommanahalli,12.9080307849,77.6287078857,11,822
2,Engineer,MuseumRoad,12.9737802491,77.5868225098,11,774
2,Engineer,PeenyaIndustrialArea,13.0346624715,77.516784668,10,625
2,Engineer,Mahadevapura,12.9936856959,77.692565918,1,1019
2,Engineer,MainGuardCrossRoad,12.9798858708,77.6067352295,1,999
2,Engineer,WaltonRoad,12.9724211005,77.5982272625,10,636
2,Engineer,Puttenahalli,12.899497142,77.5820159912,1,946
2,Engineer,Chickpet,12.9707692023,77.57188797,1,1085
2,Engineer,JCNagar,13.0069829837,77.592959404,1,962
2,Engineer,CubbonPark,12.9737802491,77.5868225098,11,843
2,Engineer,Konanakunte,12.8834330247,77.564163208,11,846
2,Engineer,Marathahalli,12.9543750866,77.7011489868,10,704
2,Engineer,Mathikere,13.0257986821,77.5670814514,11,892
2,Engineer,Madivala,12.9215836189,77.6280212402,10,672
2,Engineer,JeevanbheemaNagar,12.9648306423,77.661151886,1,1099
2,Engineer,Jayanagar,12.9324588181,77.5818443298,11,846
2,Engineer,Indiranagar,12.9729438509,77.6393508911,10,664
2,Engineer,RajaRajeshwariNagar,12.9127157983,77.510175705,11,864
2,Engineer,HBRLayout,13.0273038762,77.6271629333,1,1084
2,Engineer,Jalahalli,13.0535596792,77.5420188904,10,620
2,Engineer,BangaloreCBD,12.9737802491,77.5868225098,10,700
2,Engineer,MissionRoad,12.9737802491,77.5868225098,11,794
2,Engineer,ArabicCollege,13.032153884,77.6226997375,10,662
2,Engineer,Sadahalli,13.2116624326,77.6461315155,10,643
2,Engineer,Whitefield,12.9794676823,77.7241516113,1,1016
2,Engineer,BTMLayout,12.9147236343,77.6163482666,11,897
2,Engineer,Rajajinagar,12.9861586136,77.5530052185,11,783
2,Engineer,Jakkur,13.0781406098,77.5960922241,10,606
2,Engineer,BannerghattaRoad,12.8333933969,77.5887107849,1,1051
2,Engineer,Seshadripuram,12.9881658579,77.5873374939,10,762
2,Engineer,Shivajinagar,12.9885840317,77.6048469543,10,713
2,Engineer,WilsonGarden,12.9443373401,77.6002120972,11,790
2,Engineer,Koramangala,12.9297818899,77.6214981079,11,815
2,Engineer,Kammanahalli,13.0266349022,77.6356601715,1,987
2,Engineer,Hebbal,13.0353314238,77.5988388062,11,913
2,Engineer,Laggere,13.0166000747,77.5212478638,10,662
2,Engineer,Banashankari,12.9488543761,77.5457954407,11,819
2,Engineer,JnanaBharathi,12.945341133,77.5023651123,10,615
2,Engineer,Basaveshwaranagar,12.995191085,77.5447654724,1,1000
2,Engineer,Brookefield,12.9647469996,77.7232933044,1,1001
2,Engineer,SanjeeviniNagar,12.9737802491,77.5868225098,1,1086
2,Engineer,BensonTown,12.9976164149,77.6039886475,11,792
2,Engineer,Basavangudi,12.9297400627,77.5709867477,10,604
2,Engineer,Yeshwanthpur,13.0292271666,77.5456237793,11,822
2,Engineer,Vimanapura,12.9583482495,77.6679754257,1,1009
2,Engineer,Yelahanka,13.1018831282,77.599697113,10,671
2,Engineer,Adugodi,12.9475996521,77.606306076,10,707
2,Engineer,Kadugodi,13.0010452891,77.7262973785,10,632
2,Engineer,Hennur,13.03733827,77.6517105103,11,821
2,Engineer,KumaraswamyLayout,12.9060228951,77.5597000122,10,744
2,Engineer,Kamakshipalya,12.9890022048,77.5219345093,1,1036
2,Engineer,HaralurRoad,12.905813739,77.6628255844,1,1052
2,Engineer,Banaswadi,13.0181889494,77.6450157166,1,1027
3,Designer,KalyanNagar,13.0254223821,77.6407241821,1,808
3,Designer,Jayamahal,13.0045159307,77.5982379913,10,554
3,Designer,Kengeri,12.9253481646,77.4841690063,11,682
3,Designer,KasturbaRoad,12.9737802491,77.5948905945,11,681
3,Designer,KumaraParkEast,12.9821858949,77.5864362717,11,617
3,Designer,DoddaballapuraMainRoad,13.1393732508,77.5690984726,1,861
3,Designer,Thyagarajanagar,12.9318732425,77.5670814514,1,844
3,Designer,Kanakapura,12.5451801735,77.4165344238,1,776
3,Designer,BVKIyengarRoad,12.97217018,77.5766944885,10,505
3,Designer,Vijayanagar,12.9709364837,77.5320625305,10,452
3,Designer,K.HRoad,12.9595192748,77.5933027267,1,803
3,Designer,VarthurRoad,12.95688446,77.704668045,10,449
3,Designer,CrescentRoad,12.9889185703,77.5822520256,1,854
3,Designer,Sarjapur,12.8578705482,77.7862930298,1,740
3,Designer,Lingarajapuram,13.0085301061,77.6304674149,1,735
3,Designer,St.MarksRoad,12.9747421035,77.6011991501,10,564
3,Designer,HAL2ndStage,12.9737802491,77.6434707642,11,715
3,Designer,Kalasipalyam,12.9606066506,77.5814151764,1,771
3,Designer,KempegowdaRoad,12.9744493656,77.5778532028,10,525
3,Designer,Sadhashivnagar,13.0105789831,77.5827884674,10,470
3,Designer,AshokNagar,12.9737802491,77.5868225098,1,805
3,Designer,Subramanyapura,12.8988278244,77.5406455994,1,737
3,Designer,LavelleRoad,12.9682599689,77.5963068008,11,658
3,Designer,DickensonRoad,12.9781712935,77.6153182983,1,797
3,Designer,AustinTown,12.9617672099,77.6145994663,10,527
3,Designer,Nagashettyhalli,13.0417699978,77.5734329224,11,663
3,Designer,CookeTown,12.9737802491,77.5868225098,11,660
3,Designer,Kaggalipura,12.9737802491,77.5868225098,1,800
3,Designer,Srirampuram,12.9876640483,77.5651931763,10,411
3,Designer,Carmelram,12.903178357,77.7114486694,10,507
3,Designer,AirportRoad,12.9662525639,77.6259613037,11,698
3,Designer,Bidadi,12.9737802491,77.5868225098,10,533
3,Designer,Viveknagar,12.9534549766,77.6199531555,10,461
3,Designer,VictoriaRoad,12.9653115873,77.6176357269,10,410
3,Designer,Dasarahalli,13.0503823736,77.5123214722,11,712
3,Designer,CunninghamRoad,12.98640952,77.59557724,1,838
3,Designer,K.GCircle,12.9741984471,77.5787115097,10,524
3,Designer,JPNagar,12.9133850788,77.5876808167,10,456
3,Designer,MagrathRoad,12.9703928189,77.6110696793,1,819
3,Designer,HSRLayout,12.9112099107,77.6348876953,1,765
3,Designer,TumkurRoad,13.0349551383,77.5296163559,11,622
3,Designer,KanakapuraMainRoad,12.946010326,77.5767588615,1,758
3,Designer,Sultanpalya,13.0223701502,77.602250576,11,709
3,Designer,MysoreRoad,12.9737802491,77.5868225098,1,755
3,Designer,VittalMallyaRoad,12.9692218447,77.5951051712,1,896
3,Designer,Kadubeesanahalli,12.9391091871,77.696814537,1,840
3,Designer,Bilekahalli,12.8974055185,77.6106834412,1,818
3,Designer,Chikkabanavara,13.0761340949,77.5078582764,1,741
3,Designer,BalajiNagar,12.9261010669,77.6083660126,1,870
3,Designer,HAL3rdStage,12.9684272519,77.6544570923,11,728
3,Designer,Nagasandra,13.0390942471,77.4902629852,11,722
3,Designer,InfantryRoad,12.9804295147,77.6042890549,1,846
3,Designer,ElectronicCity,12.8442724252,77.6700782776,11,605
3,Designer,BangaloreUniversity,12.9543750866,77.509059906,1,803
3,Designer,Vyalikaval,13.0022161134,77.5744628906,10,417
3,Designer,Domlur,12.9635759988,77.6371192932,11,620
3,Designer,SankeyRoad,13.0056449241,77.5802135468,10,425
3,Designer,SahakaraNagar,13.0646381226,77.5862216949,1,761
3,Designer,RMV2ndStage,13.0405157433,77.5658798218,1,835
3,Designer,DollarsColony,13.0381326422,77.5624895096,11,621
3,Designer,HALAirportRoad,12.9597283859,77.655916214,10,468
3,Designer,QueensRoad,12.9812240692,77.5973796844,10,421
3,Designer,Kathriguppe,12.9300328532,77.5577259064,1,841
3,Designer,TanneryRoad,12.9737802491,77.5868225098,10,429
3,Designer,NewBELRoad,13.0264676584,77.5717163086,10,432
3,Designer,CVRamanNagar,12.9844858977,77.661151886,11,650
3,Designer,Hoskote,13.070365274,77.7888679504,10,533
3,Designer,Virgonagar,13.03733827,77.7303314209,1,736
3,Designer,Sanjaynagar,13.0383416871,77.582359314,1,886
3,Designer,Gandhinagar,12.9824786237,77.5768661499,1,738
3,Designer,DispensaryRoad,12.957783646,77.576469183,10,516
3,Designer,GangaNagar,13.0215339157,77.5881099701,11,585
3,Designer,DJHalli,12.9737802491,77.5868225098,10,403
3,Designer,K.GNagar,12.9737802491,77.5868225098,1,884
3,Designer,Rajkunte,13.2967523618,77.5511169434,10,523
3,Designer,KumaraKrupa,12.9737802491,77.5868225098,10,440
3,Designer,Chamarajpet,12.9737802491,77.5868225098,10,475
3,Designer,HRBRLayout,13.0160983226,77.6466464996,1,840
3,Designer,K.RMarket,12.9643287856,77.5783038139,1,785
3,Designer,VVPuram,12.9522002758,77.5777244568,10,485
3,Designer,Murugeshpalya,12.9601466076,77.657289505,1,763
3,Designer,Nagarbhavi,12.9721074498,77.5142097473,10,548
3,Designer,BrigadeRoad,12.9745748248,77.6076793671,1,776
3,Designer,M.GRoad,12.9743657261,77.6130008698,1,765
3,Designer,PalaceGuttahalli,12.9960274083,77.5748920441,11,708
3,Designer,NandidurgaRoad,12.9996026588,77.6000833511,11,585
3,Designer,Bellandur,12.9267703115,77.6498222351,1,827
3,Designer,LangfordGardens,12.9629904963,77.5998687744,1,802
3,Designer,Shanthinagar,12.9543750866,77.5979804993,1,781
3,Designer,KasturiNagar,13.0058958108,77.6576328278,10,527
3,Designer,Kodihalli,12.9604811844,77.6465606689,1,896
3,Designer,HaudinRoad,12.9737802491,77.5868225098,1,812
3,Designer,KRRoad,12.9319987231,77.5737333298,1,744
3,Designer,St.JohnsRoad,12.9813077064,77.6117134094,11,579
3,Designer,NewThippasandra,12.9776276446,77.6525688171,1,740
3,Designer,Gavipuram,12.9737802491,77.5868225098,10,493
3,Designer,MahalakshmiLayout,13.0206140544,77.5499153137,1,876
3,Designer,RichmondTown,12.963994214,77.603302002,10,549
3,Designer,Doddanekundi,12.9759548712,77.6901626587,11,732
3,Designer,Hesaraghatta,13.1644052736,77.4862289429,11,614
3,Designer,ChurchStreet,12.9754216724,77.6037955284,1,789
3,Designer,PalaceCrossRoad,12.9971773483,77.5873160362,11,646
3,Designer,St.ThomasTown,12.9737802491,77.5868225098,10,402
3,Designer,CommercialStreet,12.9830640803,77.6071643829,1,877
3,Designer,Nayandahalli,12.9386491044,77.5232219696,11,580
3,Designer,Agaram,12.9570517506,77.6347160339,11,591
3,Designer,Kothanur,13.0602486102,77.6412391663,11,568
3,Designer,Ejipura,12.9398202224,77.6299953461,10,543
3,Designer,OldMadrasRoad,12.9872458729,77.6484918594,11,616
3,Designer,HanumanthaNagar,12.9737802491,77.5868225098,11,581
3,Designer,PadmanabhaNagar,12.9199104693,77.5541210175,1,883
3,Designer,ArakereGate,12.8906076212,77.5986242294,10,430
3,Designer,Ramanagaram,12.9737802491,77.5868225098,10,531
3,Designer,RaceCourseRoad,12.9615999224,77.6153826714,11,677
3,Designer,Vidyaranyapura,13.0818191778,77.5581550598,11,640
3,Designer,Rajanukunte,13.1760637235,77.5624895096,11,670
3,Designer,Vasanthanagar,12.9928493647,77.5916290283,11,696
3,Designer,Krishnarajapuram,13.0027178935,77.6778030396,10,542
3,Designer,RichmondRoad,12.9656670678,77.6033234596,10,400
3,Designer,Malleswaram,13.0085719201,77.5643348694,11,650
3,Designer,Kumbalgodu,12.959226519,77.5697851181,11,606
3,Designer,CoxTown,12.9977418624,77.6199102402,11,625
3,Designer,Devanhalli,13.2466293486,77.7083587646,1,801
3,Designer,Maruthisevanagar,13.0002089827,77.6329994202,10,400
3,Designer,Byatarayanapura,13.0622552541,77.6065635681,10,537
3,Designer,ResidencyRoad,12.9723583704,77.6077651978,1,814
3,Designer,DoubleRoad,12.9737802491,77.5868225098,11,727
3,Designer,Bhoopasandra,12.9737802491,77.5868225098,1,857
3,Designer,Ulsoor,12.9833149898,77.6148033142,1,786
3,Designer,JCRoad,12.9566126124,77.5816297531,1,898
3,Designer,MillersRoad,12.9874967782,77.5911140442,10,509
3,Designer,HosurRoad,12.9217509333,77.6199531555,10,463
3,Designer,FrazerTown,12.9984109144,77.6148462296,11,662
3,Designer,Nagawara,12.9737802491,77.5868225098,10,551
3,Designer,Shampur,12.9737802491,77.5868225098,11,659
3,Designer,LangfordRoad,12.9619449528,77.5989031792,11,692
3,Designer,ChandraLayout,12.9496072074,77.5188446045,10,523
3,Designer,WheelersRoad,12.9961528566,77.6172065735,10,540
3,Designer,KumaraParkWest,12.9737802491,77.5868225098,11,599
3,Designer,Viswaneedam,13.0115825085,77.5102615356,11,623
3,Designer,RTNagar,13.0209485498,77.5967788696,11,635
3,Designer,Bommanahalli,12.9080307849,77.6287078857,10,438
3,Designer,MuseumRoad,12.9737802491,77.5868225098,10,470
3,Designer,PeenyaIndustrialArea,13.0346624715,77.516784668,11,639
3,Designer,Mahadevapura,12.9936856959,77.692565918,11,731
3,Designer,MainGuardCrossRoad,12.9798858708,77.6067352295,10,504
3,Designer,WaltonRoad,12.9724211005,77.5982272625,1,796
3,Designer,Puttenahalli,12.899497142,77.5820159912,10,445
3,Designer,Chickpet,12.9707692023,77.57188797,11,628
3,Designer,JCNagar,13.0069829837,77.592959404,10,462
3,Designer,CubbonPark,12.9737802491,77.5868225098,11,662
3,Designer,Konanakunte,12.8834330247,77.564163208,11,694
3,Designer,Marathahalli,12.9543750866,77.7011489868,11,595
3,Designer,Mathikere,13.0257986821,77.5670814514,10,455
3,Designer,Madivala,12.9215836189,77.6280212402,11,618
3,Designer,JeevanbheemaNagar,12.9648306423,77.661151886,11,637
3,Designer,Jayanagar,12.9324588181,77.5818443298,1,855
3,Designer,Indiranagar,12.9729438509,77.6393508911,11,596
3,Designer,RajaRajeshwariNagar,12.9127157983,77.510175705,11,680
3,Designer,HBRLayout,13.0273038762,77.6271629333,1,783
3,Designer,Jalahalli,13.0535596792,77.5420188904,1,852
3,Designer,BangaloreCBD,12.9737802491,77.5868225098,10,454
3,Designer,MissionRoad,12.9737802491,77.5868225098,11,599
3,Designer,ArabicCollege,13.032153884,77.6226997375,10,473
3,Designer,Sadahalli,13.2116624326,77.6461315155,10,531
3,Designer,Whitefield,12.9794676823,77.7241516113,1,816
3,Designer,BTMLayout,12.9147236343,77.6163482666,10,552
3,Designer,Rajajinagar,12.9861586136,77.5530052185,10,500
3,Designer,Jakkur,13.0781406098,77.5960922241,10,563
3,Designer,BannerghattaRoad,12.8333933969,77.5887107849,10,409
3,Designer,Seshadripuram,12.9881658579,77.5873374939,10,555
3,Designer,Shivajinagar,12.9885840317,77.6048469543,1,837
3,Designer,WilsonGarden,12.9443373401,77.6002120972,10,409
3,Designer,Koramangala,12.9297818899,77.6214981079,11,568
3,Designer,Kammanahalli,13.0266349022,77.6356601715,11,609
3,Designer,Hebbal,13.0353314238,77.5988388062,11,618
3,Designer,Laggere,13.0166000747,77.5212478638,1,767
3,Designer,Banashankari,12.9488543761,77.5457954407,10,549
3,Designer,JnanaBharathi,12.945341133,77.5023651123,1,813
3,Designer,Basaveshwaranagar,12.995191085,77.5447654724,10,514
3,Designer,Brookefield,12.9647469996,77.7232933044,11,622
3,Designer,SanjeeviniNagar,12.9737802491,77.5868225098,1,893
3,Designer,BensonTown,12.9976164149,77.6039886475,10,493
3,Designer,Basavangudi,12.9297400627,77.5709867477,10,548
3,Designer,Yeshwanthpur,13.0292271666,77.5456237793,10,550
3,Designer,Vimanapura,12.9583482495,77.6679754257,1,809
3,Designer,Yelahanka,13.1018831282,77.599697113,1,896
3,Designer,Adugodi,12.9475996521,77.606306076,11,653
3,Designer,Kadugodi,13.0010452891,77.7262973785,1,864
3,Designer,Hennur,13.03733827,77.6517105103,11,643
3,Designer,KumaraswamyLayout,12.9060228951,77.5597000122,11,682
3,Designer,Kamakshipalya,12.9890022048,77.5219345093,11,613
3,Designer,HaralurRoad,12.905813739,77.6628255844,11,584
3,Designer,Banaswadi,13.0181889494,77.6450157166,11,579
4,Plumber,KalyanNagar,13.0254223821,77.6407241821,10,311
4,Plumber,Jayamahal,13.0045159307,77.5982379913,11,415
4,Plumber,Kengeri,12.9253481646,77.4841690063,10,266
4,Plumber,KasturbaRoad,12.9737802491,77.5948905945,1,469
4,Plumber,KumaraParkEast,12.9821858949,77.5864362717,10,333
4,Plumber,DoddaballapuraMainRoad,13.1393732508,77.5690984726,11,364
4,Plumber,Thyagarajanagar,12.9318732425,77.5670814514,1,481
4,Plumber,Kanakapura,12.5451801735,77.4165344238,11,376
4,Plumber,BVKIyengarRoad,12.97217018,77.5766944885,1,496
4,Plumber,Vijayanagar,12.9709364837,77.5320625305,10,272
4,Plumber,K.HRoad,12.9595192748,77.5933027267,1,496
4,Plumber,VarthurRoad,12.95688446,77.704668045,10,257
4,Plumber,CrescentRoad,12.9889185703,77.5822520256,1,485
4,Plumber,Sarjapur,12.8578705482,77.7862930298,11,407
4,Plumber,Lingarajapuram,13.0085301061,77.6304674149,10,254
4,Plumber,St.MarksRoad,12.9747421035,77.6011991501,11,378
4,Plumber,HAL2ndStage,12.9737802491,77.6434707642,10,272
4,Plumber,Kalasipalyam,12.9606066506,77.5814151764,1,464
4,Plumber,KempegowdaRoad,12.9744493656,77.5778532028,11,353
4,Plumber,Sadhashivnagar,13.0105789831,77.5827884674,1,466
4,Plumber,AshokNagar,12.9737802491,77.5868225098,10,285
4,Plumber,Subramanyapura,12.8988278244,77.5406455994,11,398
4,Plumber,LavelleRoad,12.9682599689,77.5963068008,10,298
4,Plumber,DickensonRoad,12.9781712935,77.6153182983,11,341
4,Plumber,AustinTown,12.9617672099,77.6145994663,11,374
4,Plumber,Nagashettyhalli,13.0417699978,77.5734329224,11,410
4,Plumber,CookeTown,12.9737802491,77.5868225098,1,474
4,Plumber,Kaggalipura,12.9737802491,77.5868225098,11,382
4,Plumber,Srirampuram,12.9876640483,77.5651931763,1,491
4,Plumber,Carmelram,12.903178357,77.7114486694,1,444
4,Plumber,AirportRoad,12.9662525639,77.6259613037,1,444
4,Plumber,Bidadi,12.9737802491,77.5868225098,10,321
4,Plumber,Viveknagar,12.9534549766,77.6199531555,1,438
4,Plumber,VictoriaRoad,12.9653115873,77.6176357269,1,445
4,Plumber,Dasarahalli,13.0503823736,77.5123214722,11,383
4,Plumber,CunninghamRoad,12.98640952,77.59557724,10,324
4,Plumber,K.GCircle,12.9741984471,77.5787115097,1,480
4,Plumber,JPNagar,12.9133850788,77.5876808167,10,315
4,Plumber,MagrathRoad,12.9703928189,77.6110696793,1,497
4,Plumber,HSRLayout,12.9112099107,77.6348876953,10,283
4,Plumber,TumkurRoad,13.0349551383,77.5296163559,11,358
4,Plumber,KanakapuraMainRoad,12.946010326,77.5767588615,11,397
4,Plumber,Sultanpalya,13.0223701502,77.602250576,10,288
4,Plumber,MysoreRoad,12.9737802491,77.5868225098,1,486
4,Plumber,VittalMallyaRoad,12.9692218447,77.5951051712,1,435
4,Plumber,Kadubeesanahalli,12.9391091871,77.696814537,10,290
4,Plumber,Bilekahalli,12.8974055185,77.6106834412,11,349
4,Plumber,Chikkabanavara,13.0761340949,77.5078582764,10,311
4,Plumber,BalajiNagar,12.9261010669,77.6083660126,10,326
4,Plumber,HAL3rdStage,12.9684272519,77.6544570923,11,350
4,Plumber,Nagasandra,13.0390942471,77.4902629852,1,462
4,Plumber,InfantryRoad,12.9804295147,77.6042890549,10,331
4,Plumber,ElectronicCity,12.8442724252,77.6700782776,10,313
4,Plumber,BangaloreUniversity,12.9543750866,77.509059906,11,376
4,Plumber,Vyalikaval,13.0022161134,77.5744628906,10,321
4,Plumber,Domlur,12.9635759988,77.6371192932,10,301
4,Plumber,SankeyRoad,13.0056449241,77.5802135468,1,446
4,Plumber,SahakaraNagar,13.0646381226,77.5862216949,1,483
4,Plumber,RMV2ndStage,13.0405157433,77.5658798218,1,452
4,Plumber,DollarsColony,13.0381326422,77.5624895096,11,392
4,Plumber,HALAirportRoad,12.9597283859,77.655916214,1,433
4,Plumber,QueensRoad,12.9812240692,77.5973796844,11,396
4,Plumber,Kathriguppe,12.9300328532,77.5577259064,10,267
4,Plumber,TanneryRoad,12.9737802491,77.5868225098,11,399
4,Plumber,NewBELRoad,13.0264676584,77.5717163086,10,258
4,Plumber,CVRamanNagar,12.9844858977,77.661151886,11,401
4,Plumber,Hoskote,13.070365274,77.7888679504,10,301
4,Plumber,Virgonagar,13.03733827,77.7303314209,11,386
4,Plumber,Sanjaynagar,13.0383416871,77.582359314,10,330
4,Plumber,Gandhinagar,12.9824786237,77.5768661499,1,454
4,Plumber,DispensaryRoad,12.957783646,77.576469183,1,497
4,Plumber,GangaNagar,13.0215339157,77.5881099701,10,286
4,Plumber,DJHalli,12.9737802491,77.5868225098,10,332
4,Plumber,K.GNagar,12.9737802491,77.5868225098,10,250
4,Plumber,Rajkunte,13.2967523618,77.5511169434,10,291
4,Plumber,KumaraKrupa,12.9737802491,77.5868225098,1,481
4,Plumber,Chamarajpet,12.9737802491,77.5868225098,1,483
4,Plumber,HRBRLayout,13.0160983226,77.6466464996,11,367
4,Plumber,K.RMarket,12.9643287856,77.5783038139,1,465
4,Plumber,VVPuram,12.9522002758,77.5777244568,1,467
4,Plumber,Murugeshpalya,12.9601466076,77.657289505,11,352
4,Plumber,Nagarbhavi,12.9721074498,77.5142097473,11,410
4,Plumber,BrigadeRoad,12.9745748248,77.6076793671,1,468
4,Plumber,M.GRoad,12.9743657261,77.6130008698,10,308
4,Plumber,PalaceGuttahalli,12.9960274083,77.5748920441,10,331
4,Plumber,NandidurgaRoad,12.9996026588,77.6000833511,1,424
4,Plumber,Bellandur,12.9267703115,77.6498222351,10,324
4,Plumber,LangfordGardens,12.9629904963,77.5998687744,10,321
4,Plumber,Shanthinagar,12.9543750866,77.5979804993,11,395
4,Plumber,KasturiNagar,13.0058958108,77.6576328278,10,308
4,Plumber,Kodihalli,12.9604811844,77.6465606689,1,480
4,Plumber,HaudinRoad,12.9737802491,77.5868225098,11,361
4,Plumber,KRRoad,12.9319987231,77.5737333298,10,274
4,Plumber,St.JohnsRoad,12.9813077064,77.6117134094,10,316
4,Plumber,NewThippasandra,12.9776276446,77.6525688171,11,380
4,Plumber,Gavipuram,12.9737802491,77.5868225098,10,300
4,Plumber,MahalakshmiLayout,13.0206140544,77.5499153137,1,474
4,Plumber,RichmondTown,12.963994214,77.603302002,11,404
4,Plumber,Doddanekundi,12.9759548712,77.6901626587,11,386
4,Plumber,Hesaraghatta,13.1644052736,77.4862289429,1,459
4,Plumber,ChurchStreet,12.9754216724,77.6037955284,1,492
4,Plumber,PalaceCrossRoad,12.9971773483,77.5873160362,10,316
4,Plumber,St.ThomasTown,12.9737802491,77.5868225098,11,350
4,Plumber,CommercialStreet,12.9830640803,77.6071643829,10,299
4,Plumber,Nayandahalli,12.9386491044,77.5232219696,1,467
4,Plumber,Agaram,12.9570517506,77.6347160339,1,458
4,Plumber,Kothanur,13.0602486102,77.6412391663,1,470
4,Plumber,Ejipura,12.9398202224,77.6299953461,1,429
4,Plumber,OldMadrasRoad,12.9872458729,77.6484918594,10,313
4,Plumber,HanumanthaNagar,12.9737802491,77.5868225098,10,312
4,Plumber,PadmanabhaNagar,12.9199104693,77.5541210175,11,373
4,Plumber,ArakereGate,12.8906076212,77.5986242294,11,365
4,Plumber,Ramanagaram,12.9737802491,77.5868225098,11,378
4,Plumber,RaceCourseRoad,12.9615999224,77.6153826714,1,454
4,Plumber,Vidyaranyapura,13.0818191778,77.5581550598,10,294
4,Plumber,Rajanukunte,13.1760637235,77.5624895096,11,405
4,Plumber,Vasanthanagar,12.9928493647,77.5916290283,11,376
4,Plumber,Krishnarajapuram,13.0027178935,77.6778030396,1,466
4,Plumber,RichmondRoad,12.9656670678,77.6033234596,11,379
4,Plumber,Malleswaram,13.0085719201,77.5643348694,11,375
4,Plumber,Kumbalgodu,12.959226519,77.5697851181,10,288
4,Plumber,CoxTown,12.9977418624,77.6199102402,10,273
4,Plumber,Devanhalli,13.2466293486,77.7083587646,10,297
4,Plumber,Maruthisevanagar,13.0002089827,77.6329994202,10,319
4,Plumber,Byatarayanapura,13.0622552541,77.6065635681,11,362
4,Plumber,ResidencyRoad,12.9723583704,77.6077651978,10,276
4,Plumber,DoubleRoad,12.9737802491,77.5868225098,10,325
4,Plumber,Bhoopasandra,12.9737802491,77.5868225098,10,326
4,Plumber,Ulsoor,12.9833149898,77.6148033142,1,458
4,Plumber,JCRoad,12.9566126124,77.5816297531,11,415
4,Plumber,MillersRoad,12.9874967782,77.5911140442,11,363
4,Plumber,HosurRoad,12.9217509333,77.6199531555,1,457
4,Plumber,FrazerTown,12.9984109144,77.6148462296,11,380
4,Plumber,Nagawara,12.9737802491,77.5868225098,1,467
4,Plumber,Shampur,12.9737802491,77.5868225098,10,325
4,Plumber,LangfordRoad,12.9619449528,77.5989031792,11,341
4,Plumber,ChandraLayout,12.9496072074,77.5188446045,1,498
4,Plumber,WheelersRoad,12.9961528566,77.6172065735,1,489
4,Plumber,KumaraParkWest,12.9737802491,77.5868225098,10,258
4,Plumber,Viswaneedam,13.0115825085,77.5102615356,11,351
4,Plumber,RTNagar,13.0209485498,77.5967788696,1,417
4,Plumber,Bommanahalli,12.9080307849,77.6287078857,11,383
4,Plumber,MuseumRoad,12.9737802491,77.5868225098,10,264
4,Plumber,PeenyaIndustrialArea,13.0346624715,77.516784668,10,255
4,Plumber,Mahadevapura,12.9936856959,77.692565918,1,445
4,Plumber,MainGuardCrossRoad,12.9798858708,77.6067352295,10,288
4,Plumber,WaltonRoad,12.9724211005,77.5982272625,10,279
4,Plumber,Puttenahalli,12.899497142,77.5820159912,10,259
4,Plumber,Chickpet,12.9707692023,77.57188797,11,349
4,Plumber,JCNagar,13.0069829837,77.592959404,1,461
4,Plumber,CubbonPark,12.9737802491,77.5868225098,10,313
4,Plumber,Konanakunte,12.8834330247,77.564163208,1,424
4,Plumber,Marathahalli,12.9543750866,77.7011489868,1,458
4,Plumber,Mathikere,13.0257986821,77.5670814514,11,357
4,Plumber,Madivala,12.9215836189,77.6280212402,1,497
4,Plumber,JeevanbheemaNagar,12.9648306423,77.661151886,1,441
4,Plumber,Jayanagar,12.9324588181,77.5818443298,1,435
4,Plumber,Indiranagar,12.9729438509,77.6393508911,1,421
4,Plumber,RajaRajeshwariNagar,12.9127157983,77.510175705,1,477
4,Plumber,HBRLayout,13.0273038762,77.6271629333,1,442
4,Plumber,Jalahalli,13.0535596792,77.5420188904,10,294
4,Plumber,BangaloreCBD,12.9737802491,77.5868225098,10,293
4,Plumber,MissionRoad,12.9737802491,77.5868225098,1,438
4,Plumber,ArabicCollege,13.032153884,77.6226997375,1,468
4,Plumber,Sadahalli,13.2116624326,77.6461315155,1,430
4,Plumber,Whitefield,12.9794676823,77.7241516113,1,470
4,Plumber,BTMLayout,12.9147236343,77.6163482666,11,390
4,Plumber,Rajajinagar,12.9861586136,77.5530052185,10,312
4,Plumber,Jakkur,13.0781406098,77.5960922241,1,492
4,Plumber,BannerghattaRoad,12.8333933969,77.5887107849,11,382
4,Plumber,Seshadripuram,12.9881658579,77.5873374939,11,406
4,Plumber,Shivajinagar,12.9885840317,77.6048469543,1,490
4,Plumber,WilsonGarden,12.9443373401,77.6002120972,10,286
4,Plumber,Koramangala,12.9297818899,77.6214981079,11,384
4,Plumber,Kammanahalli,13.0266349022,77.6356601715,1,465
4,Plumber,Hebbal,13.0353314238,77.5988388062,1,458
4,Plumber,Laggere,13.0166000747,77.5212478638,11,381
4,Plumber,Banashankari,12.9488543761,77.5457954407,11,335
4,Plumber,JnanaBharathi,12.945341133,77.5023651123,1,477
4,Plumber,Basaveshwaranagar,12.995191085,77.5447654724,11,389
4,Plumber,Brookefield,12.9647469996,77.7232933044,1,426
4,Plumber,SanjeeviniNagar,12.9737802491,77.5868225098,11,370
4,Plumber,BensonTown,12.9976164149,77.6039886475,10,329
4,Plumber,Basavangudi,12.9297400627,77.5709867477,11,372
4,Plumber,Yeshwanthpur,13.0292271666,77.5456237793,10,303
4,Plumber,Vimanapura,12.9583482495,77.6679754257,1,445
4,Plumber,Yelahanka,13.1018831282,77.599697113,10,273
4,Plumber,Adugodi,12.9475996521,77.606306076,1,467
4,Plumber,Kadugodi,13.0010452891,77.7262973785,10,298
4,Plumber,Hennur,13.03733827,77.6517105103,11,380
4,Plumber,KumaraswamyLayout,12.9060228951,77.5597000122,1,453
4,Plumber,Kamakshipalya,12.9890022048,77.5219345093,1,431
4,Plumber,HaralurRoad,12.905813739,77.6628255844,11,373
4,Plumber,Banaswadi,13.0181889494,77.6450157166,10,319
5,Carpenter,KalyanNagar,13.0254223821,77.6407241821,11,392
5,Carpenter,Jayamahal,13.0045159307,77.5982379913,10,342
5,Carpenter,Kengeri,12.9253481646,77.4841690063,1,416
5,Carpenter,KasturbaRoad,12.9737802491,77.5948905945,10,318
5,Carpenter,KumaraParkEast,12.9821858949,77.5864362717,1,417
5,Carpenter,DoddaballapuraMainRoad,13.1393732508,77.5690984726,1,435
5,Carpenter,Thyagarajanagar,12.9318732425,77.5670814514,1,414
5,Carpenter,Kanakapura,12.5451801735,77.4165344238,10,312
5,Carpenter,BVKIyengarRoad,12.97217018,77.5766944885,10,350
5,Carpenter,Vijayanagar,12.9709364837,77.5320625305,10,318
5,Carpenter,K.HRoad,12.9595192748,77.5933027267,10,321
5,Carpenter,VarthurRoad,12.95688446,77.704668045,11,382
5,Carpenter,CrescentRoad,12.9889185703,77.5822520256,11,360
5,Carpenter,Sarjapur,12.8578705482,77.7862930298,1,431
5,Carpenter,Lingarajapuram,13.0085301061,77.6304674149,11,355
5,Carpenter,St.MarksRoad,12.9747421035,77.6011991501,10,334
5,Carpenter,HAL2ndStage,12.9737802491,77.6434707642,11,363
5,Carpenter,Kalasipalyam,12.9606066506,77.5814151764,1,448
5,Carpenter,KempegowdaRoad,12.9744493656,77.5778532028,1,443
5,Carpenter,Sadhashivnagar,13.0105789831,77.5827884674,10,346
5,Carpenter,AshokNagar,12.9737802491,77.5868225098,11,364
5,Carpenter,Subramanyapura,12.8988278244,77.5406455994,11,383
5,Carpenter,LavelleRoad,12.9682599689,77.5963068008,1,445
5,Carpenter,DickensonRoad,12.9781712935,77.6153182983,11,362
5,Carpenter,AustinTown,12.9617672099,77.6145994663,10,319
5,Carpenter,Nagashettyhalli,13.0417699978,77.5734329224,1,420
5,Carpenter,CookeTown,12.9737802491,77.5868225098,11,390
5,Carpenter,Kaggalipura,12.9737802491,77.5868225098,10,316
5,Carpenter,Srirampuram,12.9876640483,77.5651931763,1,424
5,Carpenter,Carmelram,12.903178357,77.7114486694,11,363
5,Carpenter,AirportRoad,12.9662525639,77.6259613037,1,416
5,Carpenter,Bidadi,12.9737802491,77.5868225098,10,306
5,Carpenter,Viveknagar,12.9534549766,77.6199531555,10,350
5,Carpenter,VictoriaRoad,12.9653115873,77.6176357269,1,435
5,Carpenter,Dasarahalli,13.0503823736,77.5123214722,11,374
5,Carpenter,CunninghamRoad,12.98640952,77.59557724,11,364
5,Carpenter,K.GCircle,12.9741984471,77.5787115097,10,321
5,Carpenter,JPNagar,12.9133850788,77.5876808167,10,314
5,Carpenter,MagrathRoad,12.9703928189,77.6110696793,1,428
5,Carpenter,HSRLayout,12.9112099107,77.6348876953,10,335
5,Carpenter,TumkurRoad,13.0349551383,77.5296163559,1,407
5,Carpenter,KanakapuraMainRoad,12.946010326,77.5767588615,1,430
5,Carpenter,Sultanpalya,13.0223701502,77.602250576,1,421
5,Carpenter,MysoreRoad,12.9737802491,77.5868225098,1,419
5,Carpenter,VittalMallyaRoad,12.9692218447,77.5951051712,11,379
5,Carpenter,Kadubeesanahalli,12.9391091871,77.696814537,10,307
5,Carpenter,Bilekahalli,12.8974055185,77.6106834412,10,304
5,Carpenter,Chikkabanavara,13.0761340949,77.5078582764,10,326
5,Carpenter,BalajiNagar,12.9261010669,77.6083660126,11,397
5,Carpenter,HAL3rdStage,12.9684272519,77.6544570923,10,320
5,Carpenter,Nagasandra,13.0390942471,77.4902629852,10,328
5,Carpenter,InfantryRoad,12.9804295147,77.6042890549,10,346
5,Carpenter,ElectronicCity,12.8442724252,77.6700782776,11,375
5,Carpenter,BangaloreUniversity,12.9543750866,77.509059906,10,335
5,Carpenter,Vyalikaval,13.0022161134,77.5744628906,1,413
5,Carpenter,Domlur,12.9635759988,77.6371192932,10,338
5,Carpenter,SankeyRoad,13.0056449241,77.5802135468,1,402
5,Carpenter,SahakaraNagar,13.0646381226,77.5862216949,10,329
5,Carpenter,RMV2ndStage,13.0405157433,77.5658798218,10,326
5,Carpenter,DollarsColony,13.0381326422,77.5624895096,10,312
5,Carpenter,HALAirportRoad,12.9597283859,77.655916214,10,317
5,Carpenter,QueensRoad,12.9812240692,77.5973796844,10,329
5,Carpenter,Kathriguppe,12.9300328532,77.5577259064,11,366
5,Carpenter,TanneryRoad,12.9737802491,77.5868225098,11,375
5,Carpenter,NewBELRoad,13.0264676584,77.5717163086,1,408
5,Carpenter,CVRamanNagar,12.9844858977,77.661151886,10,348
5,Carpenter,Hoskote,13.070365274,77.7888679504,11,364
5,Carpenter,Virgonagar,13.03733827,77.7303314209,1,422
5,Carpenter,Sanjaynagar,13.0383416871,77.582359314,1,407
5,Carpenter,Gandhinagar,12.9824786237,77.5768661499,1,416
5,Carpenter,DispensaryRoad,12.957783646,77.576469183,10,307
5,Carpenter,GangaNagar,13.0215339157,77.5881099701,10,322
5,Carpenter,DJHalli,12.9737802491,77.5868225098,10,336
5,Carpenter,K.GNagar,12.9737802491,77.5868225098,1,442
5,Carpenter,Rajkunte,13.2967523618,77.5511169434,11,379
5,Carpenter,KumaraKrupa,12.9737802491,77.5868225098,10,313
5,Carpenter,Chamarajpet,12.9737802491,77.5868225098,11,366
5,Carpenter,HRBRLayout,13.0160983226,77.6466464996,11,359
5,Carpenter,K.RMarket,12.9643287856,77.5783038139,1,445
5,Carpenter,VVPuram,12.9522002758,77.5777244568,10,336
5,Carpenter,Murugeshpalya,12.9601466076,77.657289505,11,394
5,Carpenter,Nagarbhavi,12.9721074498,77.5142097473,11,364
5,Carpenter,BrigadeRoad,12.9745748248,77.6076793671,1,410
5,Carpenter,M.GRoad,12.9743657261,77.6130008698,1,431
5,Carpenter,PalaceGuttahalli,12.9960274083,77.5748920441,10,321
5,Carpenter,NandidurgaRoad,12.9996026588,77.6000833511,1,403
5,Carpenter,Bellandur,12.9267703115,77.6498222351,1,415
5,Carpenter,LangfordGardens,12.9629904963,77.5998687744,10,335
5,Carpenter,Shanthinagar,12.9543750866,77.5979804993,1,450
5,Carpenter,KasturiNagar,13.0058958108,77.6576328278,1,408
5,Carpenter,Kodihalli,12.9604811844,77.6465606689,1,433
5,Carpenter,HaudinRoad,12.9737802491,77.5868225098,10,311
5,Carpenter,KRRoad,12.9319987231,77.5737333298,11,379
5,Carpenter,St.JohnsRoad,12.9813077064,77.6117134094,10,349
5,Carpenter,NewThippasandra,12.9776276446,77.6525688171,1,410
5,Carpenter,Gavipuram,12.9737802491,77.5868225098,11,379
5,Carpenter,MahalakshmiLayout,13.0206140544,77.5499153137,10,314
5,Carpenter,RichmondTown,12.963994214,77.603302002,10,329
5,Carpenter,Doddanekundi,12.9759548712,77.6901626587,10,319
5,Carpenter,Hesaraghatta,13.1644052736,77.4862289429,10,311
5,Carpenter,ChurchStreet,12.9754216724,77.6037955284,1,409
5,Carpenter,PalaceCrossRoad,12.9971773483,77.5873160362,10,329
5,Carpenter,St.ThomasTown,12.9737802491,77.5868225098,10,349
5,Carpenter,CommercialStreet,12.9830640803,77.6071643829,10,331
5,Carpenter,Nayandahalli,12.9386491044,77.5232219696,1,420
5,Carpenter,Agaram,12.9570517506,77.6347160339,11,383
5,Carpenter,Kothanur,13.0602486102,77.6412391663,1,405
5,Carpenter,Ejipura,12.9398202224,77.6299953461,1,415
5,Carpenter,OldMadrasRoad,12.9872458729,77.6484918594,11,381
5,Carpenter,HanumanthaNagar,12.9737802491,77.5868225098,11,362
5,Carpenter,PadmanabhaNagar,12.9199104693,77.5541210175,1,446
5,Carpenter,ArakereGate,12.8906076212,77.5986242294,10,345
5,Carpenter,Ramanagaram,12.9737802491,77.5868225098,11,364
5,Carpenter,RaceCourseRoad,12.9615999224,77.6153826714,1,432
5,Carpenter,Vidyaranyapura,13.0818191778,77.5581550598,1,427
5,Carpenter,Rajanukunte,13.1760637235,77.5624895096,1,436
5,Carpenter,Vasanthanagar,12.9928493647,77.5916290283,10,331
5,Carpenter,Krishnarajapuram,13.0027178935,77.6778030396,10,308
5,Carpenter,RichmondRoad,12.9656670678,77.6033234596,11,373
5,Carpenter,Malleswaram,13.0085719201,77.5643348694,11,390
5,Carpenter,Kumbalgodu,12.959226519,77.5697851181,1,407
5,Carpenter,CoxTown,12.9977418624,77.6199102402,1,430
5,Carpenter,Devanhalli,13.2466293486,77.7083587646,10,326
5,Carpenter,Maruthisevanagar,13.0002089827,77.6329994202,10,311
5,Carpenter,Byatarayanapura,13.0622552541,77.6065635681,11,384
5,Carpenter,ResidencyRoad,12.9723583704,77.6077651978,11,382
5,Carpenter,DoubleRoad,12.9737802491,77.5868225098,11,372
5,Carpenter,Bhoopasandra,12.9737802491,77.5868225098,11,375
5,Carpenter,Ulsoor,12.9833149898,77.6148033142,1,450
5,Carpenter,JCRoad,12.9566126124,77.5816297531,1,446
5,Carpenter,MillersRoad,12.9874967782,77.5911140442,1,407
5,Carpenter,HosurRoad,12.9217509333,77.6199531555,1,435
5,Carpenter,FrazerTown,12.9984109144,77.6148462296,11,353
5,Carpenter,Nagawara,12.9737802491,77.5868225098,1,406
5,Carpenter,Shampur,12.9737802491,77.5868225098,1,424
5,Carpenter,LangfordRoad,12.9619449528,77.5989031792,11,400
5,Carpenter,ChandraLayout,12.9496072074,77.5188446045,10,333
5,Carpenter,WheelersRoad,12.9961528566,77.6172065735,1,429
5,Carpenter,KumaraParkWest,12.9737802491,77.5868225098,1,449
5,Carpenter,Viswaneedam,13.0115825085,77.5102615356,10,326
5,Carpenter,RTNagar,13.0209485498,77.5967788696,10,338
5,Carpenter,Bommanahalli,12.9080307849,77.6287078857,10,344
5,Carpenter,MuseumRoad,12.9737802491,77.5868225098,11,378
5,Carpenter,PeenyaIndustrialArea,13.0346624715,77.516784668,10,323
5,Carpenter,Mahadevapura,12.9936856959,77.692565918,10,349
5,Carpenter,MainGuardCrossRoad,12.9798858708,77.6067352295,10,324
5,Carpenter,WaltonRoad,12.9724211005,77.5982272625,1,413
5,Carpenter,Puttenahalli,12.899497142,77.5820159912,10,311
5,Carpenter,Chickpet,12.9707692023,77.57188797,11,372
5,Carpenter,JCNagar,13.0069829837,77.592959404,1,411
5,Carpenter,CubbonPark,12.9737802491,77.5868225098,1,442
5,Carpenter,Konanakunte,12.8834330247,77.564163208,11,383
5,Carpenter,Marathahalli,12.9543750866,77.7011489868,10,300
5,Carpenter,Mathikere,13.0257986821,77.5670814514,10,307
5,Carpenter,Madivala,12.9215836189,77.6280212402,10,322
5,Carpenter,JeevanbheemaNagar,12.9648306423,77.661151886,1,435
5,Carpenter,Jayanagar,12.9324588181,77.5818443298,11,393
5,Carpenter,Indiranagar,12.9729438509,77.6393508911,10,317
5,Carpenter,RajaRajeshwariNagar,12.9127157983,77.510175705,10,302
5,Carpenter,HBRLayout,13.0273038762,77.6271629333,11,367
5,Carpenter,Jalahalli,13.0535596792,77.5420188904,10,347
5,Carpenter,BangaloreCBD,12.9737802491,77.5868225098,10,328
5,Carpenter,MissionRoad,12.9737802491,77.5868225098,1,431
5,Carpenter,ArabicCollege,13.032153884,77.6226997375,11,359
5,Carpenter,Sadahalli,13.2116624326,77.6461315155,10,301
5,Carpenter,Whitefield,12.9794676823,77.7241516113,1,402
5,Carpenter,BTMLayout,12.9147236343,77.6163482666,1,406
5,Carpenter,Rajajinagar,12.9861586136,77.5530052185,10,342
5,Carpenter,Jakkur,13.0781406098,77.5960922241,11,400
5,Carpenter,BannerghattaRoad,12.8333933969,77.5887107849,1,419
5,Carpenter,Seshadripuram,12.9881658579,77.5873374939,1,416
5,Carpenter,Shivajinagar,12.9885840317,77.6048469543,11,365
5,Carpenter,WilsonGarden,12.9443373401,77.6002120972,11,373
5,Carpenter,Koramangala,12.9297818899,77.6214981079,10,338
5,Carpenter,Kammanahalli,13.0266349022,77.6356601715,11,368
5,Carpenter,Hebbal,13.0353314238,77.5988388062,1,426
5,Carpenter,Laggere,13.0166000747,77.5212478638,11,361
5,Carpenter,Banashankari,12.9488543761,77.5457954407,11,369
5,Carpenter,JnanaBharathi,12.945341133,77.5023651123,11,388
5,Carpenter,Basaveshwaranagar,12.995191085,77.5447654724,1,429
5,Carpenter,Brookefield,12.9647469996,77.7232933044,1,429
5,Carpenter,SanjeeviniNagar,12.9737802491,77.5868225098,1,432
5,Carpenter,BensonTown,12.9976164149,77.6039886475,11,359
5,Carpenter,Basavangudi,12.9297400627,77.5709867477,1,430
5,Carpenter,Yeshwanthpur,13.0292271666,77.5456237793,1,438
5,Carpenter,Vimanapura,12.9583482495,77.6679754257,10,323
5,Carpenter,Yelahanka,13.1018831282,77.599697113,11,358
5,Carpenter,Adugodi,12.9475996521,77.606306076,10,344
5,Carpenter,Kadugodi,13.0010452891,77.7262973785,11,359
5,Carpenter,Hennur,13.03733827,77.6517105103,11,382
5,Carpenter,KumaraswamyLayout,12.9060228951,77.5597000122,10,316
5,Carpenter,Kamakshipalya,12.9890022048,77.5219345093,1,403
5,Carpenter,HaralurRoad,12.905813739,77.6628255844,11,384
5,Carpenter,Banaswadi,13.0181889494,77.6450157166,1,417
6,Painter,KalyanNagar,13.0254223821,77.6407241821,10,411
6,Painter,Jayamahal,13.0045159307,77.5982379913,1,594
6,Painter,Kengeri,12.9253481646,77.4841690063,11,490
6,Painter,KasturbaRoad,12.9737802491,77.5948905945,11,557
6,Painter,KumaraParkEast,12.9821858949,77.5864362717,10,368
6,Painter,DoddaballapuraMainRoad,13.1393732508,77.5690984726,11,537
6,Painter,Thyagarajanagar,12.9318732425,77.5670814514,10,430
6,Painter,Kanakapura,12.5451801735,77.4165344238,1,665
6,Painter,BVKIyengarRoad,12.97217018,77.5766944885,11,549
6,Painter,Vijayanagar,12.9709364837,77.5320625305,11,566
6,Painter,K.HRoad,12.9595192748,77.5933027267,11,548
6,Painter,VarthurRoad,12.95688446,77.704668045,1,630
6,Painter,CrescentRoad,12.9889185703,77.5822520256,10,371
6,Painter,Sarjapur,12.8578705482,77.7862930298,10,447
6,Painter,Lingarajapuram,13.0085301061,77.6304674149,11,502
6,Painter,St.MarksRoad,12.9747421035,77.6011991501,1,603
6,Painter,HAL2ndStage,12.9737802491,77.6434707642,1,604
6,Painter,Kalasipalyam,12.9606066506,77.5814151764,10,428
6,Painter,KempegowdaRoad,12.9744493656,77.5778532028,10,382
6,Painter,Sadhashivnagar,13.0105789831,77.5827884674,1,661
6,Painter,AshokNagar,12.9737802491,77.5868225098,11,498
6,Painter,Subramanyapura,12.8988278244,77.5406455994,10,426
6,Painter,LavelleRoad,12.9682599689,77.5963068008,1,666
6,Painter,DickensonRoad,12.9781712935,77.6153182983,10,383
6,Painter,AustinTown,12.9617672099,77.6145994663,1,609
6,Painter,Nagashettyhalli,13.0417699978,77.5734329224,1,635
6,Painter,CookeTown,12.9737802491,77.5868225098,1,596
6,Painter,Kaggalipura,12.9737802491,77.5868225098,1,678
6,Painter,Srirampuram,12.9876640483,77.5651931763,1,661
6,Painter,Carmelram,12.903178357,77.7114486694,11,537
6,Painter,AirportRoad,12.9662525639,77.6259613037,10,360
6,Painter,Bidadi,12.9737802491,77.5868225098,10,456
6,Painter,Viveknagar,12.9534549766,77.6199531555,1,608
6,Painter,VictoriaRoad,12.9653115873,77.6176357269,10,456
6,Painter,Dasarahalli,13.0503823736,77.5123214722,1,586
6,Painter,CunninghamRoad,12.98640952,77.59557724,1,605
6,Painter,K.GCircle,12.9741984471,77.5787115097,10,355
6,Painter,JPNagar,12.9133850788,77.5876808167,11,521
6,Painter,MagrathRoad,12.9703928189,77.6110696793,10,373
6,Painter,HSRLayout,12.9112099107,77.6348876953,1,656
6,Painter,TumkurRoad,13.0349551383,77.5296163559,1,692
6,Painter,KanakapuraMainRoad,12.946010326,77.5767588615,1,656
6,Painter,Sultanpalya,13.0223701502,77.602250576,10,456
6,Painter,MysoreRoad,12.9737802491,77.5868225098,1,695
6,Painter,VittalMallyaRoad,12.9692218447,77.5951051712,10,459
6,Painter,Kadubeesanahalli,12.9391091871,77.696814537,10,386
6,Painter,Bilekahalli,12.8974055185,77.6106834412,1,611
6,Painter,Chikkabanavara,13.0761340949,77.5078582764,11,523
6,Painter,BalajiNagar,12.9261010669,77.6083660126,11,484
6,Painter,HAL3rdStage,12.9684272519,77.6544570923,1,690
6,Painter,Nagasandra,13.0390942471,77.4902629852,11,517
6,Painter,InfantryRoad,12.9804295147,77.6042890549,1,680
6,Painter,ElectronicCity,12.8442724252,77.6700782776,1,697
6,Painter,BangaloreUniversity,12.9543750866,77.509059906,11,505
6,Painter,Vyalikaval,13.0022161134,77.5744628906,10,369
6,Painter,Domlur,12.9635759988,77.6371192932,11,517
6,Painter,SankeyRoad,13.0056449241,77.5802135468,10,381
6,Painter,SahakaraNagar,13.0646381226,77.5862216949,1,604
6,Painter,RMV2ndStage,13.0405157433,77.5658798218,1,672
6,Painter,DollarsColony,13.0381326422,77.5624895096,10,432
6,Painter,HALAirportRoad,12.9597283859,77.655916214,11,478
6,Painter,QueensRoad,12.9812240692,77.5973796844,11,572
6,Painter,Kathriguppe,12.9300328532,77.5577259064,10,362
6,Painter,TanneryRoad,12.9737802491,77.5868225098,11,496
6,Painter,NewBELRoad,13.0264676584,77.5717163086,11,551
6,Painter,CVRamanNagar,12.9844858977,77.661151886,1,628
6,Painter,Hoskote,13.070365274,77.7888679504,1,608
6,Painter,Virgonagar,13.03733827,77.7303314209,1,673
6,Painter,Sanjaynagar,13.0383416871,77.582359314,1,662
6,Painter,Gandhinagar,12.9824786237,77.5768661499,1,661
6,Painter,DispensaryRoad,12.957783646,77.576469183,11,533
6,Painter,GangaNagar,13.0215339157,77.5881099701,11,565
6,Painter,DJHalli,12.9737802491,77.5868225098,10,401
6,Painter,K.GNagar,12.9737802491,77.5868225098,1,669
6,Painter,Rajkunte,13.2967523618,77.5511169434,1,657
6,Painter,KumaraKrupa,12.9737802491,77.5868225098,11,539
6,Painter,Chamarajpet,12.9737802491,77.5868225098,10,453
6,Painter,HRBRLayout,13.0160983226,77.6466464996,1,594
6,Painter,K.RMarket,12.9643287856,77.5783038139,11,501
6,Painter,VVPuram,12.9522002758,77.5777244568,11,542
6,Painter,Murugeshpalya,12.9601466076,77.657289505,11,502
6,Painter,Nagarbhavi,12.9721074498,77.5142097473,11,490
6,Painter,BrigadeRoad,12.9745748248,77.6076793671,10,390
6,Painter,M.GRoad,12.9743657261,77.6130008698,1,672
6,Painter,PalaceGuttahalli,12.9960274083,77.5748920441,10,395
6,Painter,NandidurgaRoad,12.9996026588,77.6000833511,10,446
6,Painter,Bellandur,12.9267703115,77.6498222351,11,529
6,Painter,LangfordGardens,12.9629904963,77.5998687744,10,425
6,Painter,Shanthinagar,12.9543750866,77.5979804993,11,468
6,Painter,KasturiNagar,13.0058958108,77.6576328278,1,627
6,Painter,Kodihalli,12.9604811844,77.6465606689,10,362
6,Painter,HaudinRoad,12.9737802491,77.5868225098,11,475
6,Painter,KRRoad,12.9319987231,77.5737333298,1,611
6,Painter,St.JohnsRoad,12.9813077064,77.6117134094,1,659
6,Painter,NewThippasandra,12.9776276446,77.6525688171,1,617
6,Painter,Gavipuram,12.9737802491,77.5868225098,11,550
6,Painter,MahalakshmiLayout,13.0206140544,77.5499153137,1,625
6,Painter,RichmondTown,12.963994214,77.603302002,11,524
6,Painter,Doddanekundi,12.9759548712,77.6901626587,11,534
6,Painter,Hesaraghatta,13.1644052736,77.4862289429,11,500
6,Painter,ChurchStreet,12.9754216724,77.6037955284,11,481
6,Painter,PalaceCrossRoad,12.9971773483,77.5873160362,11,484
6,Painter,St.ThomasTown,12.9737802491,77.5868225098,11,565
6,Painter,CommercialStreet,12.9830640803,77.6071643829,11,471
6,Painter,Nayandahalli,12.9386491044,77.5232219696,1,622
6,Painter,Agaram,12.9570517506,77.6347160339,1,607
6,Painter,Kothanur,13.0602486102,77.6412391663,11,469
6,Painter,Ejipura,12.9398202224,77.6299953461,11,481
6,Painter,OldMadrasRoad,12.9872458729,77.6484918594,10,387
6,Painter,HanumanthaNagar,12.9737802491,77.5868225098,10,406
6,Painter,PadmanabhaNagar,12.9199104693,77.5541210175,1,611
6,Painter,ArakereGate,12.8906076212,77.5986242294,11,495
6,Painter,Ramanagaram,12.9737802491,77.5868225098,11,534
6,Painter,RaceCourseRoad,12.9615999224,77.6153826714,11,579
6,Painter,Vidyaranyapura,13.0818191778,77.5581550598,10,439
6,Painter,Rajanukunte,13.1760637235,77.5624895096,1,615
6,Painter,Vasanthanagar,12.9928493647,77.5916290283,1,671
6,Painter,Krishnarajapuram,13.0027178935,77.6778030396,1,645
6,Painter,RichmondRoad,12.9656670678,77.6033234596,10,351
6,Painter,Malleswaram,13.0085719201,77.5643348694,1,630
6,Painter,Kumbalgodu,12.959226519,77.5697851181,11,521
6,Painter,CoxTown,12.9977418624,77.6199102402,11,475
6,Painter,Devanhalli,13.2466293486,77.7083587646,10,400
6,Painter,Maruthisevanagar,13.0002089827,77.6329994202,11,524
6,Painter,Byatarayanapura,13.0622552541,77.6065635681,10,388
6,Painter,ResidencyRoad,12.9723583704,77.6077651978,10,404
6,Painter,DoubleRoad,12.9737802491,77.5868225098,1,652
6,Painter,Bhoopasandra,12.9737802491,77.5868225098,11,571
6,Painter,Ulsoor,12.9833149898,77.6148033142,10,454
6,Painter,JCRoad,12.9566126124,77.5816297531,11,504
6,Painter,MillersRoad,12.9874967782,77.5911140442,10,400
6,Painter,HosurRoad,12.9217509333,77.6199531555,1,624
6,Painter,FrazerTown,12.9984109144,77.6148462296,1,622
6,Painter,Nagawara,12.9737802491,77.5868225098,10,355
6,Painter,Shampur,12.9737802491,77.5868225098,11,539
6,Painter,LangfordRoad,12.9619449528,77.5989031792,1,589
6,Painter,ChandraLayout,12.9496072074,77.5188446045,1,597
6,Painter,WheelersRoad,12.9961528566,77.6172065735,1,658
6,Painter,KumaraParkWest,12.9737802491,77.5868225098,1,678
6,Painter,Viswaneedam,13.0115825085,77.5102615356,1,685
6,Painter,RTNagar,13.0209485498,77.5967788696,11,579
6,Painter,Bommanahalli,12.9080307849,77.6287078857,11,505
6,Painter,MuseumRoad,12.9737802491,77.5868225098,11,475
6,Painter,PeenyaIndustrialArea,13.0346624715,77.516784668,10,405
6,Painter,Mahadevapura,12.9936856959,77.692565918,10,394
6,Painter,MainGuardCrossRoad,12.9798858708,77.6067352295,11,501
6,Painter,WaltonRoad,12.9724211005,77.5982272625,10,363
6,Painter,Puttenahalli,12.899497142,77.5820159912,10,464
6,Painter,Chickpet,12.9707692023,77.57188797,10,428
6,Painter,JCNagar,13.0069829837,77.592959404,10,352
6,Painter,CubbonPark,12.9737802491,77.5868225098,10,419
6,Painter,Konanakunte,12.8834330247,77.564163208,1,682
6,Painter,Marathahalli,12.9543750866,77.7011489868,1,656
6,Painter,Mathikere,13.0257986821,77.5670814514,11,578
6,Painter,Madivala,12.9215836189,77.6280212402,11,477
6,Painter,JeevanbheemaNagar,12.9648306423,77.661151886,10,444
6,Painter,Jayanagar,12.9324588181,77.5818443298,10,357
6,Painter,Indiranagar,12.9729438509,77.6393508911,10,445
6,Painter,RajaRajeshwariNagar,12.9127157983,77.510175705,10,432
6,Painter,HBRLayout,13.0273038762,77.6271629333,10,438
6,Painter,Jalahalli,13.0535596792,77.5420188904,11,496
6,Painter,BangaloreCBD,12.9737802491,77.5868225098,1,674
6,Painter,MissionRoad,12.9737802491,77.5868225098,1,700
6,Painter,ArabicCollege,13.032153884,77.6226997375,11,526
6,Painter,Sadahalli,13.2116624326,77.6461315155,1,666
6,Painter,Whitefield,12.9794676823,77.7241516113,11,485
6,Painter,BTMLayout,12.9147236343,77.6163482666,11,473
6,Painter,Rajajinagar,12.9861586136,77.5530052185,11,539
6,Painter,Jakkur,13.0781406098,77.5960922241,10,399
6,Painter,BannerghattaRoad,12.8333933969,77.5887107849,1,668
6,Painter,Seshadripuram,12.9881658579,77.5873374939,10,375
6,Painter,Shivajinagar,12.9885840317,77.6048469543,10,359
6,Painter,WilsonGarden,12.9443373401,77.6002120972,1,636
6,Painter,Koramangala,12.9297818899,77.6214981079,1,688
6,Painter,Kammanahalli,13.0266349022,77.6356601715,10,447
6,Painter,Hebbal,13.0353314238,77.5988388062,10,413
6,Painter,Laggere,13.0166000747,77.5212478638,1,644
6,Painter,Banashankari,12.9488543761,77.5457954407,1,585
6,Painter,JnanaBharathi,12.945341133,77.5023651123,11,579
6,Painter,Basaveshwaranagar,12.995191085,77.5447654724,10,446
6,Painter,Brookefield,12.9647469996,77.7232933044,10,384
6,Painter,SanjeeviniNagar,12.9737802491,77.5868225098,11,530
6,Painter,BensonTown,12.9976164149,77.6039886475,10,450
6,Painter,Basavangudi,12.9297400627,77.5709867477,10,351
6,Painter,Yeshwanthpur,13.0292271666,77.5456237793,11,493
6,Painter,Vimanapura,12.9583482495,77.6679754257,11,503
6,Painter,Yelahanka,13.1018831282,77.599697113,1,687
6,Painter,Adugodi,12.9475996521,77.606306076,1,583
6,Painter,Kadugodi,13.0010452891,77.7262973785,1,647
6,Painter,Hennur,13.03733827,77.6517105103,10,411
6,Painter,KumaraswamyLayout,12.9060228951,77.5597000122,11,480
6,Painter,Kamakshipalya,12.9890022048,77.5219345093,10,405
6,Painter,HaralurRoad,12.905813739,77.6628255844,11,501
6,Painter,Banaswadi,13.0181889494,77.6450157166,11,524
7,Waiter,KalyanNagar,13.0254223821,77.6407241821,10,240
7,Waiter,Jayamahal,13.0045159307,77.5982379913,1,456
7,Waiter,Kengeri,12.9253481646,77.4841690063,1,411
7,Waiter,KasturbaRoad,12.9737802491,77.5948905945,11,360
7,Waiter,KumaraParkEast,12.9821858949,77.5864362717,11,302
7,Waiter,DoddaballapuraMainRoad,13.1393732508,77.5690984726,1,452
7,Waiter,Thyagarajanagar,12.9318732425,77.5670814514,1,445
7,Waiter,Kanakapura,12.5451801735,77.4165344238,10,214
7,Waiter,BVKIyengarRoad,12.97217018,77.5766944885,11,296
7,Waiter,Vijayanagar,12.9709364837,77.5320625305,11,327
7,Waiter,K.HRoad,12.9595192748,77.5933027267,1,445
7,Waiter,VarthurRoad,12.95688446,77.704668045,11,315
7,Waiter,CrescentRoad,12.9889185703,77.5822520256,1,469
7,Waiter,Sarjapur,12.8578705482,77.7862930298,1,401
7,Waiter,Lingarajapuram,13.0085301061,77.6304674149,1,399
7,Waiter,St.MarksRoad,12.9747421035,77.6011991501,10,289
7,Waiter,HAL2ndStage,12.9737802491,77.6434707642,11,374
7,Waiter,Kalasipalyam,12.9606066506,77.5814151764,11,378
7,Waiter,KempegowdaRoad,12.9744493656,77.5778532028,11,368
7,Waiter,Sadhashivnagar,13.0105789831,77.5827884674,11,338
7,Waiter,AshokNagar,12.9737802491,77.5868225098,1,408
7,Waiter,Subramanyapura,12.8988278244,77.5406455994,11,366
7,Waiter,LavelleRoad,12.9682599689,77.5963068008,1,418
7,Waiter,DickensonRoad,12.9781712935,77.6153182983,10,214
7,Waiter,AustinTown,12.9617672099,77.6145994663,10,259
7,Waiter,Nagashettyhalli,13.0417699978,77.5734329224,10,234
7,Waiter,CookeTown,12.9737802491,77.5868225098,11,346
7,Waiter,Kaggalipura,12.9737802491,77.5868225098,10,284
7,Waiter,Srirampuram,12.9876640483,77.5651931763,1,419
7,Waiter,Carmelram,12.903178357,77.7114486694,11,325
7,Waiter,AirportRoad,12.9662525639,77.6259613037,10,219
7,Waiter,Bidadi,12.9737802491,77.5868225098,10,263
7,Waiter,Viveknagar,12.9534549766,77.6199531555,11,319
7,Waiter,VictoriaRoad,12.9653115873,77.6176357269,10,261
7,Waiter,Dasarahalli,13.0503823736,77.5123214722,1,458
7,Waiter,CunninghamRoad,12.98640952,77.59557724,11,312
7,Waiter,K.GCircle,12.9741984471,77.5787115097,10,279
7,Waiter,JPNagar,12.9133850788,77.5876808167,11,382
7,Waiter,MagrathRoad,12.9703928189,77.6110696793,11,349
7,Waiter,HSRLayout,12.9112099107,77.6348876953,11,371
7,Waiter,TumkurRoad,13.0349551383,77.5296163559,1,464
7,Waiter,KanakapuraMainRoad,12.946010326,77.5767588615,10,201
7,Waiter,Sultanpalya,13.0223701502,77.602250576,10,254
7,Waiter,MysoreRoad,12.9737802491,77.5868225098,10,287
7,Waiter,VittalMallyaRoad,12.9692218447,77.5951051712,10,285
7,Waiter,Kadubeesanahalli,12.9391091871,77.696814537,11,324
7,Waiter,Bilekahalli,12.8974055185,77.6106834412,10,205
7,Waiter,Chikkabanavara,13.0761340949,77.5078582764,10,204
7,Waiter,BalajiNagar,12.9261010669,77.6083660126,1,442
7,Waiter,HAL3rdStage,12.9684272519,77.6544570923,11,358
7,Waiter,Nagasandra,13.0390942471,77.4902629852,11,370
7,Waiter,InfantryRoad,12.9804295147,77.6042890549,1,396
7,Waiter,ElectronicCity,12.8442724252,77.6700782776,10,247
7,Waiter,BangaloreUniversity,12.9543750866,77.509059906,10,204
7,Waiter,Vyalikaval,13.0022161134,77.5744628906,10,206
7,Waiter,Domlur,12.9635759988,77.6371192932,10,239
7,Waiter,SankeyRoad,13.0056449241,77.5802135468,1,400
7,Waiter,SahakaraNagar,13.0646381226,77.5862216949,10,265
7,Waiter,RMV2ndStage,13.0405157433,77.5658798218,10,268
7,Waiter,DollarsColony,13.0381326422,77.5624895096,10,229
7,Waiter,HALAirportRoad,12.9597283859,77.655916214,1,463
7,Waiter,QueensRoad,12.9812240692,77.5973796844,11,298
7,Waiter,Kathriguppe,12.9300328532,77.5577259064,1,433
7,Waiter,TanneryRoad,12.9737802491,77.5868225098,10,280
7,Waiter,NewBELRoad,13.0264676584,77.5717163086,10,231
7,Waiter,CVRamanNagar,12.9844858977,77.661151886,10,215
7,Waiter,Hoskote,13.070365274,77.7888679504,1,410
7,Waiter,Virgonagar,13.03733827,77.7303314209,1,465
7,Waiter,Sanjaynagar,13.0383416871,77.582359314,10,208
7,Waiter,Gandhinagar,12.9824786237,77.5768661499,1,384
7,Waiter,DispensaryRoad,12.957783646,77.576469183,1,404
7,Waiter,GangaNagar,13.0215339157,77.5881099701,10,209
7,Waiter,DJHalli,12.9737802491,77.5868225098,1,436
7,Waiter,K.GNagar,12.9737802491,77.5868225098,11,306
7,Waiter,Rajkunte,13.2967523618,77.5511169434,1,437
7,Waiter,KumaraKrupa,12.9737802491,77.5868225098,10,285
7,Waiter,Chamarajpet,12.9737802491,77.5868225098,10,285
7,Waiter,HRBRLayout,13.0160983226,77.6466464996,11,380
7,Waiter,K.RMarket,12.9643287856,77.5783038139,1,441
7,Waiter,VVPuram,12.9522002758,77.5777244568,10,257
7,Waiter,Murugeshpalya,12.9601466076,77.657289505,1,443
7,Waiter,Nagarbhavi,12.9721074498,77.5142097473,11,376
7,Waiter,BrigadeRoad,12.9745748248,77.6076793671,10,265
7,Waiter,M.GRoad,12.9743657261,77.6130008698,10,268
7,Waiter,PalaceGuttahalli,12.9960274083,77.5748920441,11,322
7,Waiter,NandidurgaRoad,12.9996026588,77.6000833511,10,287
7,Waiter,Bellandur,12.9267703115,77.6498222351,1,429
7,Waiter,LangfordGardens,12.9629904963,77.5998687744,1,409
7,Waiter,Shanthinagar,12.9543750866,77.5979804993,11,365
7,Waiter,KasturiNagar,13.0058958108,77.6576328278,11,320
7,Waiter,Kodihalli,12.9604811844,77.6465606689,11,346
7,Waiter,HaudinRoad,12.9737802491,77.5868225098,11,326
7,Waiter,KRRoad,12.9319987231,77.5737333298,1,473
7,Waiter,St.JohnsRoad,12.9813077064,77.6117134094,10,233
7,Waiter,NewThippasandra,12.9776276446,77.6525688171,1,470
7,Waiter,Gavipuram,12.9737802491,77.5868225098,1,407
7,Waiter,MahalakshmiLayout,13.0206140544,77.5499153137,11,335
7,Waiter,RichmondTown,12.963994214,77.603302002,1,395
7,Waiter,Doddanekundi,12.9759548712,77.6901626587,10,220
7,Waiter,Hesaraghatta,13.1644052736,77.4862289429,1,459
7,Waiter,ChurchStreet,12.9754216724,77.6037955284,10,228
7,Waiter,PalaceCrossRoad,12.9971773483,77.5873160362,10,263
7,Waiter,St.ThomasTown,12.9737802491,77.5868225098,10,251
7,Waiter,CommercialStreet,12.9830640803,77.6071643829,11,295
7,Waiter,Nayandahalli,12.9386491044,77.5232219696,1,423
7,Waiter,Agaram,12.9570517506,77.6347160339,1,445
7,Waiter,Kothanur,13.0602486102,77.6412391663,10,268
7,Waiter,Ejipura,12.9398202224,77.6299953461,11,357
7,Waiter,OldMadrasRoad,12.9872458729,77.6484918594,10,209
7,Waiter,HanumanthaNagar,12.9737802491,77.5868225098,10,226
7,Waiter,PadmanabhaNagar,12.9199104693,77.5541210175,10,281
7,Waiter,ArakereGate,12.8906076212,77.5986242294,10,237
7,Waiter,Ramanagaram,12.9737802491,77.5868225098,11,302
7,Waiter,RaceCourseRoad,12.9615999224,77.6153826714,11,331
7,Waiter,Vidyaranyapura,13.0818191778,77.5581550598,10,289
7,Waiter,Rajanukunte,13.1760637235,77.5624895096,10,206
7,Waiter,Vasanthanagar,12.9928493647,77.5916290283,1,391
7,Waiter,Krishnarajapuram,13.0027178935,77.6778030396,11,338
7,Waiter,RichmondRoad,12.9656670678,77.6033234596,1,405
7,Waiter,Malleswaram,13.0085719201,77.5643348694,1,445
7,Waiter,Kumbalgodu,12.959226519,77.5697851181,11,358
7,Waiter,CoxTown,12.9977418624,77.6199102402,1,388
7,Waiter,Devanhalli,13.2466293486,77.7083587646,10,262
7,Waiter,Maruthisevanagar,13.0002089827,77.6329994202,10,264
7,Waiter,Byatarayanapura,13.0622552541,77.6065635681,11,305
7,Waiter,ResidencyRoad,12.9723583704,77.6077651978,11,304
7,Waiter,DoubleRoad,12.9737802491,77.5868225098,1,423
7,Waiter,Bhoopasandra,12.9737802491,77.5868225098,11,350
7,Waiter,Ulsoor,12.9833149898,77.6148033142,11,316
7,Waiter,JCRoad,12.9566126124,77.5816297531,11,334
7,Waiter,MillersRoad,12.9874967782,77.5911140442,11,339
7,Waiter,HosurRoad,12.9217509333,77.6199531555,1,417
7,Waiter,FrazerTown,12.9984109144,77.6148462296,1,397
7,Waiter,Nagawara,12.9737802491,77.5868225098,11,335
7,Waiter,Shampur,12.9737802491,77.5868225098,1,460
7,Waiter,LangfordRoad,12.9619449528,77.5989031792,1,469
7,Waiter,ChandraLayout,12.9496072074,77.5188446045,11,366
7,Waiter,WheelersRoad,12.9961528566,77.6172065735,1,445
7,Waiter,KumaraParkWest,12.9737802491,77.5868225098,1,420
7,Waiter,Viswaneedam,13.0115825085,77.5102615356,1,424
7,Waiter,RTNagar,13.0209485498,77.5967788696,10,234
7,Waiter,Bommanahalli,12.9080307849,77.6287078857,1,436
7,Waiter,MuseumRoad,12.9737802491,77.5868225098,10,231
7,Waiter,PeenyaIndustrialArea,13.0346624715,77.516784668,11,369
7,Waiter,Mahadevapura,12.9936856959,77.692565918,11,331
7,Waiter,MainGuardCrossRoad,12.9798858708,77.6067352295,10,240
7,Waiter,WaltonRoad,12.9724211005,77.5982272625,11,373
7,Waiter,Puttenahalli,12.899497142,77.5820159912,10,268
7,Waiter,Chickpet,12.9707692023,77.57188797,10,244
7,Waiter,JCNagar,13.0069829837,77.592959404,11,321
7,Waiter,CubbonPark,12.9737802491,77.5868225098,1,455
7,Waiter,Konanakunte,12.8834330247,77.564163208,11,366
7,Waiter,Marathahalli,12.9543750866,77.7011489868,11,350
7,Waiter,Mathikere,13.0257986821,77.5670814514,1,441
7,Waiter,Madivala,12.9215836189,77.6280212402,10,250
7,Waiter,JeevanbheemaNagar,12.9648306423,77.661151886,11,344
7,Waiter,Jayanagar,12.9324588181,77.5818443298,10,262
7,Waiter,Indiranagar,12.9729438509,77.6393508911,1,441
7,Waiter,RajaRajeshwariNagar,12.9127157983,77.510175705,11,354
7,Waiter,HBRLayout,13.0273038762,77.6271629333,11,345
7,Waiter,Jalahalli,13.0535596792,77.5420188904,11,309
7,Waiter,BangaloreCBD,12.9737802491,77.5868225098,10,287
7,Waiter,MissionRoad,12.9737802491,77.5868225098,10,231
7,Waiter,ArabicCollege,13.032153884,77.6226997375,1,466
7,Waiter,Sadahalli,13.2116624326,77.6461315155,1,390
7,Waiter,Whitefield,12.9794676823,77.7241516113,1,409
7,Waiter,BTMLayout,12.9147236343,77.6163482666,10,272
7,Waiter,Rajajinagar,12.9861586136,77.5530052185,11,328
7,Waiter,Jakkur,13.0781406098,77.5960922241,1,456
7,Waiter,BannerghattaRoad,12.8333933969,77.5887107849,1,474
7,Waiter,Seshadripuram,12.9881658579,77.5873374939,1,419
7,Waiter,Shivajinagar,12.9885840317,77.6048469543,10,248
7,Waiter,WilsonGarden,12.9443373401,77.6002120972,1,423
7,Waiter,Koramangala,12.9297818899,77.6214981079,1,471
7,Waiter,Kammanahalli,13.0266349022,77.6356601715,10,220
7,Waiter,Hebbal,13.0353314238,77.5988388062,1,461
7,Waiter,Laggere,13.0166000747,77.5212478638,1,383
7,Waiter,Banashankari,12.9488543761,77.5457954407,10,245
7,Waiter,JnanaBharathi,12.945341133,77.5023651123,10,243
7,Waiter,Basaveshwaranagar,12.995191085,77.5447654724,10,275
7,Waiter,Brookefield,12.9647469996,77.7232933044,11,335
7,Waiter,SanjeeviniNagar,12.9737802491,77.5868225098,1,426
7,Waiter,BensonTown,12.9976164149,77.6039886475,11,348
7,Waiter,Basavangudi,12.9297400627,77.5709867477,11,325
7,Waiter,Yeshwanthpur,13.0292271666,77.5456237793,11,297
7,Waiter,Vimanapura,12.9583482495,77.6679754257,1,442
7,Waiter,Yelahanka,13.1018831282,77.599697113,1,461
7,Waiter,Adugodi,12.9475996521,77.606306076,1,403
7,Waiter,Kadugodi,13.0010452891,77.7262973785,1,431
7,Waiter,Hennur,13.03733827,77.6517105103,11,302
7,Waiter,KumaraswamyLayout,12.9060228951,77.5597000122,1,448
7,Waiter,Kamakshipalya,12.9890022048,77.5219345093,10,245
7,Waiter,HaralurRoad,12.905813739,77.6628255844,11,339
7,Waiter,Banaswadi,13.0181889494,77.6450157166,1,472
8,Barber,KalyanNagar,13.0254223821,77.6407241821,1,344
8,Barber,Jayamahal,13.0045159307,77.5982379913,10,192
8,Barber,Kengeri,12.9253481646,77.4841690063,1,324
8,Barber,KasturbaRoad,12.9737802491,77.5948905945,11,238
8,Barber,KumaraParkEast,12.9821858949,77.5864362717,10,175
8,Barber,DoddaballapuraMainRoad,13.1393732508,77.5690984726,1,290
8,Barber,Thyagarajanagar,12.9318732425,77.5670814514,11,222
8,Barber,Kanakapura,12.5451801735,77.4165344238,1,340
8,Barber,BVKIyengarRoad,12.97217018,77.5766944885,10,181
8,Barber,Vijayanagar,12.9709364837,77.5320625305,11,277
8,Barber,K.HRoad,12.9595192748,77.5933027267,11,245
8,Barber,VarthurRoad,12.95688446,77.704668045,1,328
8,Barber,CrescentRoad,12.9889185703,77.5822520256,10,210
8,Barber,Sarjapur,12.8578705482,77.7862930298,10,164
8,Barber,Lingarajapuram,13.0085301061,77.6304674149,1,331
8,Barber,St.MarksRoad,12.9747421035,77.6011991501,11,240
8,Barber,HAL2ndStage,12.9737802491,77.6434707642,1,335
8,Barber,Kalasipalyam,12.9606066506,77.5814151764,11,243
8,Barber,KempegowdaRoad,12.9744493656,77.5778532028,1,318
8,Barber,Sadhashivnagar,13.0105789831,77.5827884674,10,186
8,Barber,AshokNagar,12.9737802491,77.5868225098,11,269
8,Barber,Subramanyapura,12.8988278244,77.5406455994,11,279
8,Barber,LavelleRoad,12.9682599689,77.5963068008,10,213
8,Barber,DickensonRoad,12.9781712935,77.6153182983,1,321
8,Barber,AustinTown,12.9617672099,77.6145994663,10,186
8,Barber,Nagashettyhalli,13.0417699978,77.5734329224,11,231
8,Barber,CookeTown,12.9737802491,77.5868225098,11,254
8,Barber,Kaggalipura,12.9737802491,77.5868225098,11,245
8,Barber,Srirampuram,12.9876640483,77.5651931763,11,271
8,Barber,Carmelram,12.903178357,77.7114486694,1,285
8,Barber,AirportRoad,12.9662525639,77.6259613037,10,191
8,Barber,Bidadi,12.9737802491,77.5868225098,10,197
8,Barber,Viveknagar,12.9534549766,77.6199531555,1,335
8,Barber,VictoriaRoad,12.9653115873,77.6176357269,10,156
8,Barber,Dasarahalli,13.0503823736,77.5123214722,1,342
8,Barber,CunninghamRoad,12.98640952,77.59557724,1,327
8,Barber,K.GCircle,12.9741984471,77.5787115097,11,250
8,Barber,JPNagar,12.9133850788,77.5876808167,1,311
8,Barber,MagrathRoad,12.9703928189,77.6110696793,10,174
8,Barber,HSRLayout,12.9112099107,77.6348876953,11,239
8,Barber,TumkurRoad,13.0349551383,77.5296163559,1,302
8,Barber,KanakapuraMainRoad,12.946010326,77.5767588615,1,287
8,Barber,Sultanpalya,13.0223701502,77.602250576,1,297
8,Barber,MysoreRoad,12.9737802491,77.5868225098,10,204
8,Barber,VittalMallyaRoad,12.9692218447,77.5951051712,10,160
8,Barber,Kadubeesanahalli,12.9391091871,77.696814537,1,305
8,Barber,Bilekahalli,12.8974055185,77.6106834412,11,263
8,Barber,Chikkabanavara,13.0761340949,77.5078582764,10,208
8,Barber,BalajiNagar,12.9261010669,77.6083660126,11,233
8,Barber,HAL3rdStage,12.9684272519,77.6544570923,1,298
8,Barber,Nagasandra,13.0390942471,77.4902629852,11,245
8,Barber,InfantryRoad,12.9804295147,77.6042890549,10,174
8,Barber,ElectronicCity,12.8442724252,77.6700782776,11,219
8,Barber,BangaloreUniversity,12.9543750866,77.509059906,10,201
8,Barber,Vyalikaval,13.0022161134,77.5744628906,10,205
8,Barber,Domlur,12.9635759988,77.6371192932,1,309
8,Barber,SankeyRoad,13.0056449241,77.5802135468,1,349
8,Barber,SahakaraNagar,13.0646381226,77.5862216949,1,308
8,Barber,RMV2ndStage,13.0405157433,77.5658798218,1,293
8,Barber,DollarsColony,13.0381326422,77.5624895096,1,350
8,Barber,HALAirportRoad,12.9597283859,77.655916214,11,221
8,Barber,QueensRoad,12.9812240692,77.5973796844,11,235
8,Barber,Kathriguppe,12.9300328532,77.5577259064,1,300
8,Barber,TanneryRoad,12.9737802491,77.5868225098,1,322
8,Barber,NewBELRoad,13.0264676584,77.5717163086,10,166
8,Barber,CVRamanNagar,12.9844858977,77.661151886,1,297
8,Barber,Hoskote,13.070365274,77.7888679504,1,342
8,Barber,Virgonagar,13.03733827,77.7303314209,10,201
8,Barber,Sanjaynagar,13.0383416871,77.582359314,11,267
8,Barber,Gandhinagar,12.9824786237,77.5768661499,1,301
8,Barber,DispensaryRoad,12.957783646,77.576469183,11,225
8,Barber,GangaNagar,13.0215339157,77.5881099701,11,217
8,Barber,DJHalli,12.9737802491,77.5868225098,11,230
8,Barber,K.GNagar,12.9737802491,77.5868225098,1,305
8,Barber,Rajkunte,13.2967523618,77.5511169434,10,159
8,Barber,KumaraKrupa,12.9737802491,77.5868225098,10,152
8,Barber,Chamarajpet,12.9737802491,77.5868225098,1,342
8,Barber,HRBRLayout,13.0160983226,77.6466464996,11,247
8,Barber,K.RMarket,12.9643287856,77.5783038139,11,260
8,Barber,VVPuram,12.9522002758,77.5777244568,10,201
8,Barber,Murugeshpalya,12.9601466076,77.657289505,11,254
8,Barber,Nagarbhavi,12.9721074498,77.5142097473,11,224
8,Barber,BrigadeRoad,12.9745748248,77.6076793671,10,206
8,Barber,M.GRoad,12.9743657261,77.6130008698,1,329
8,Barber,PalaceGuttahalli,12.9960274083,77.5748920441,10,197
8,Barber,NandidurgaRoad,12.9996026588,77.6000833511,11,218
8,Barber,Bellandur,12.9267703115,77.6498222351,11,219
8,Barber,LangfordGardens,12.9629904963,77.5998687744,11,242
8,Barber,Shanthinagar,12.9543750866,77.5979804993,10,160
8,Barber,KasturiNagar,13.0058958108,77.6576328278,11,268
8,Barber,Kodihalli,12.9604811844,77.6465606689,11,227
8,Barber,HaudinRoad,12.9737802491,77.5868225098,10,174
8,Barber,KRRoad,12.9319987231,77.5737333298,1,302
8,Barber,St.JohnsRoad,12.9813077064,77.6117134094,11,278
8,Barber,NewThippasandra,12.9776276446,77.6525688171,1,288
8,Barber,Gavipuram,12.9737802491,77.5868225098,10,199
8,Barber,MahalakshmiLayout,13.0206140544,77.5499153137,10,197
8,Barber,RichmondTown,12.963994214,77.603302002,10,164
8,Barber,Doddanekundi,12.9759548712,77.6901626587,11,242
8,Barber,Hesaraghatta,13.1644052736,77.4862289429,1,293
8,Barber,ChurchStreet,12.9754216724,77.6037955284,1,299
8,Barber,PalaceCrossRoad,12.9971773483,77.5873160362,11,261
8,Barber,St.ThomasTown,12.9737802491,77.5868225098,11,264
8,Barber,CommercialStreet,12.9830640803,77.6071643829,10,192
8,Barber,Nayandahalli,12.9386491044,77.5232219696,11,265
8,Barber,Agaram,12.9570517506,77.6347160339,1,341
8,Barber,Kothanur,13.0602486102,77.6412391663,1,329
8,Barber,Ejipura,12.9398202224,77.6299953461,10,157
8,Barber,OldMadrasRoad,12.9872458729,77.6484918594,11,234
8,Barber,HanumanthaNagar,12.9737802491,77.5868225098,10,157
8,Barber,PadmanabhaNagar,12.9199104693,77.5541210175,1,324
8,Barber,ArakereGate,12.8906076212,77.5986242294,1,349
8,Barber,Ramanagaram,12.9737802491,77.5868225098,11,224
8,Barber,RaceCourseRoad,12.9615999224,77.6153826714,10,161
8,Barber,Vidyaranyapura,13.0818191778,77.5581550598,10,208
8,Barber,Rajanukunte,13.1760637235,77.5624895096,1,336
8,Barber,Vasanthanagar,12.9928493647,77.5916290283,10,187
8,Barber,Krishnarajapuram,13.0027178935,77.6778030396,10,158
8,Barber,RichmondRoad,12.9656670678,77.6033234596,11,247
8,Barber,Malleswaram,13.0085719201,77.5643348694,10,211
8,Barber,Kumbalgodu,12.959226519,77.5697851181,10,184
8,Barber,CoxTown,12.9977418624,77.6199102402,10,215
8,Barber,Devanhalli,13.2466293486,77.7083587646,1,311
8,Barber,Maruthisevanagar,13.0002089827,77.6329994202,1,318
8,Barber,Byatarayanapura,13.0622552541,77.6065635681,10,216
8,Barber,ResidencyRoad,12.9723583704,77.6077651978,10,194
8,Barber,DoubleRoad,12.9737802491,77.5868225098,1,297
8,Barber,Bhoopasandra,12.9737802491,77.5868225098,11,277
8,Barber,Ulsoor,12.9833149898,77.6148033142,1,304
8,Barber,JCRoad,12.9566126124,77.5816297531,1,339
8,Barber,MillersRoad,12.9874967782,77.5911140442,11,264
8,Barber,HosurRoad,12.9217509333,77.6199531555,11,255
8,Barber,FrazerTown,12.9984109144,77.6148462296,10,156
8,Barber,Nagawara,12.9737802491,77.5868225098,10,159
8,Barber,Shampur,12.9737802491,77.5868225098,11,226
8,Barber,LangfordRoad,12.9619449528,77.5989031792,1,298
8,Barber,ChandraLayout,12.9496072074,77.5188446045,11,225
8,Barber,WheelersRoad,12.9961528566,77.6172065735,11,248
8,Barber,KumaraParkWest,12.9737802491,77.5868225098,11,222
8,Barber,Viswaneedam,13.0115825085,77.5102615356,1,316
8,Barber,RTNagar,13.0209485498,77.5967788696,1,291
8,Barber,Bommanahalli,12.9080307849,77.6287078857,10,209
8,Barber,MuseumRoad,12.9737802491,77.5868225098,11,229
8,Barber,PeenyaIndustrialArea,13.0346624715,77.516784668,11,237
8,Barber,Mahadevapura,12.9936856959,77.692565918,10,154
8,Barber,MainGuardCrossRoad,12.9798858708,77.6067352295,10,162
8,Barber,WaltonRoad,12.9724211005,77.5982272625,10,164
8,Barber,Puttenahalli,12.899497142,77.5820159912,10,207
8,Barber,Chickpet,12.9707692023,77.57188797,1,339
8,Barber,JCNagar,13.0069829837,77.592959404,1,303
8,Barber,CubbonPark,12.9737802491,77.5868225098,1,326
8,Barber,Konanakunte,12.8834330247,77.564163208,1,320
8,Barber,Marathahalli,12.9543750866,77.7011489868,10,150
8,Barber,Mathikere,13.0257986821,77.5670814514,10,161
8,Barber,Madivala,12.9215836189,77.6280212402,10,191
8,Barber,JeevanbheemaNagar,12.9648306423,77.661151886,10,208
8,Barber,Jayanagar,12.9324588181,77.5818443298,1,346
8,Barber,Indiranagar,12.9729438509,77.6393508911,11,239
8,Barber,RajaRajeshwariNagar,12.9127157983,77.510175705,11,280
8,Barber,HBRLayout,13.0273038762,77.6271629333,1,329
8,Barber,Jalahalli,13.0535596792,77.5420188904,1,303
8,Barber,BangaloreCBD,12.9737802491,77.5868225098,10,210
8,Barber,MissionRoad,12.9737802491,77.5868225098,1,337
8,Barber,ArabicCollege,13.032153884,77.6226997375,11,246
8,Barber,Sadahalli,13.2116624326,77.6461315155,10,170
8,Barber,Whitefield,12.9794676823,77.7241516113,11,264
8,Barber,BTMLayout,12.9147236343,77.6163482666,11,276
8,Barber,Rajajinagar,12.9861586136,77.5530052185,1,333
8,Barber,Jakkur,13.0781406098,77.5960922241,11,269
8,Barber,BannerghattaRoad,12.8333933969,77.5887107849,10,170
8,Barber,Seshadripuram,12.9881658579,77.5873374939,1,320
8,Barber,Shivajinagar,12.9885840317,77.6048469543,10,168
8,Barber,WilsonGarden,12.9443373401,77.6002120972,11,281
8,Barber,Koramangala,12.9297818899,77.6214981079,11,274
8,Barber,Kammanahalli,13.0266349022,77.6356601715,1,323
8,Barber,Hebbal,13.0353314238,77.5988388062,10,168
8,Barber,Laggere,13.0166000747,77.5212478638,1,315
8,Barber,Banashankari,12.9488543761,77.5457954407,11,226
8,Barber,JnanaBharathi,12.945341133,77.5023651123,11,234
8,Barber,Basaveshwaranagar,12.995191085,77.5447654724,10,191
8,Barber,Brookefield,12.9647469996,77.7232933044,11,240
8,Barber,SanjeeviniNagar,12.9737802491,77.5868225098,1,313
8,Barber,BensonTown,12.9976164149,77.6039886475,11,256
8,Barber,Basavangudi,12.9297400627,77.5709867477,1,331
8,Barber,Yeshwanthpur,13.0292271666,77.5456237793,1,320
8,Barber,Vimanapura,12.9583482495,77.6679754257,1,299
8,Barber,Yelahanka,13.1018831282,77.599697113,10,189
8,Barber,Adugodi,12.9475996521,77.606306076,1,324
8,Barber,Kadugodi,13.0010452891,77.7262973785,11,236
8,Barber,Hennur,13.03733827,77.6517105103,1,294
8,Barber,KumaraswamyLayout,12.9060228951,77.5597000122,11,268
8,Barber,Kamakshipalya,12.9890022048,77.5219345093,10,185
8,Barber,HaralurRoad,12.905813739,77.6628255844,1,320
8,Barber,Banaswadi,13.0181889494,77.6450157166,10,214
9,Cleaner,KalyanNagar,13.0254223821,77.6407241821,10,273
9,Cleaner,Jayamahal,13.0045159307,77.5982379913,1,331
9,Cleaner,Kengeri,12.9253481646,77.4841690063,10,253
9,Cleaner,KasturbaRoad,12.9737802491,77.5948905945,1,335
9,Cleaner,KumaraParkEast,12.9821858949,77.5864362717,11,316
9,Cleaner,DoddaballapuraMainRoad,13.1393732508,77.5690984726,11,302
9,Cleaner,Thyagarajanagar,12.9318732425,77.5670814514,10,264
9,Cleaner,Kanakapura,12.5451801735,77.4165344238,11,316
9,Cleaner,BVKIyengarRoad,12.97217018,77.5766944885,10,251
9,Cleaner,Vijayanagar,12.9709364837,77.5320625305,1,321
9,Cleaner,K.HRoad,12.9595192748,77.5933027267,1,327
9,Cleaner,VarthurRoad,12.95688446,77.704668045,11,306
9,Cleaner,CrescentRoad,12.9889185703,77.5822520256,10,277
9,Cleaner,Sarjapur,12.8578705482,77.7862930298,10,267
9,Cleaner,Lingarajapuram,13.0085301061,77.6304674149,11,306
9,Cleaner,St.MarksRoad,12.9747421035,77.6011991501,11,312
9,Cleaner,HAL2ndStage,12.9737802491,77.6434707642,1,317
9,Cleaner,Kalasipalyam,12.9606066506,77.5814151764,10,283
9,Cleaner,KempegowdaRoad,12.9744493656,77.5778532028,10,256
9,Cleaner,Sadhashivnagar,13.0105789831,77.5827884674,11,296
9,Cleaner,AshokNagar,12.9737802491,77.5868225098,1,329
9,Cleaner,Subramanyapura,12.8988278244,77.5406455994,1,339
9,Cleaner,LavelleRoad,12.9682599689,77.5963068008,1,324
9,Cleaner,DickensonRoad,12.9781712935,77.6153182983,1,335
9,Cleaner,AustinTown,12.9617672099,77.6145994663,11,297
9,Cleaner,Nagashettyhalli,13.0417699978,77.5734329224,10,255
9,Cleaner,CookeTown,12.9737802491,77.5868225098,10,276
9,Cleaner,Kaggalipura,12.9737802491,77.5868225098,11,310
9,Cleaner,Srirampuram,12.9876640483,77.5651931763,11,307
9,Cleaner,Carmelram,12.903178357,77.7114486694,10,261
9,Cleaner,AirportRoad,12.9662525639,77.6259613037,10,252
9,Cleaner,Bidadi,12.9737802491,77.5868225098,10,267
9,Cleaner,Viveknagar,12.9534549766,77.6199531555,10,252
9,Cleaner,VictoriaRoad,12.9653115873,77.6176357269,11,288
9,Cleaner,Dasarahalli,13.0503823736,77.5123214722,10,275
9,Cleaner,CunninghamRoad,12.98640952,77.59557724,10,256
9,Cleaner,K.GCircle,12.9741984471,77.5787115097,11,303
9,Cleaner,JPNagar,12.9133850788,77.5876808167,10,250
9,Cleaner,MagrathRoad,12.9703928189,77.6110696793,1,329
9,Cleaner,HSRLayout,12.9112099107,77.6348876953,1,342
9,Cleaner,TumkurRoad,13.0349551383,77.5296163559,11,310
9,Cleaner,KanakapuraMainRoad,12.946010326,77.5767588615,11,298
9,Cleaner,Sultanpalya,13.0223701502,77.602250576,10,283
9,Cleaner,MysoreRoad,12.9737802491,77.5868225098,11,293
9,Cleaner,VittalMallyaRoad,12.9692218447,77.5951051712,10,269
9,Cleaner,Kadubeesanahalli,12.9391091871,77.696814537,1,350
9,Cleaner,Bilekahalli,12.8974055185,77.6106834412,1,323
9,Cleaner,Chikkabanavara,13.0761340949,77.5078582764,11,301
9,Cleaner,BalajiNagar,12.9261010669,77.6083660126,11,316
9,Cleaner,HAL3rdStage,12.9684272519,77.6544570923,10,265
9,Cleaner,Nagasandra,13.0390942471,77.4902629852,10,264
9,Cleaner,InfantryRoad,12.9804295147,77.6042890549,1,333
9,Cleaner,ElectronicCity,12.8442724252,77.6700782776,11,311
9,Cleaner,BangaloreUniversity,12.9543750866,77.509059906,11,314
9,Cleaner,Vyalikaval,13.0022161134,77.5744628906,10,281
9,Cleaner,Domlur,12.9635759988,77.6371192932,1,317
9,Cleaner,SankeyRoad,13.0056449241,77.5802135468,10,279
9,Cleaner,SahakaraNagar,13.0646381226,77.5862216949,10,272
9,Cleaner,RMV2ndStage,13.0405157433,77.5658798218,10,273
9,Cleaner,DollarsColony,13.0381326422,77.5624895096,10,258
9,Cleaner,HALAirportRoad,12.9597283859,77.655916214,10,277
9,Cleaner,QueensRoad,12.9812240692,77.5973796844,1,344
9,Cleaner,Kathriguppe,12.9300328532,77.5577259064,11,315
9,Cleaner,TanneryRoad,12.9737802491,77.5868225098,10,281
9,Cleaner,NewBELRoad,13.0264676584,77.5717163086,1,333
9,Cleaner,CVRamanNagar,12.9844858977,77.661151886,11,284
9,Cleaner,Hoskote,13.070365274,77.7888679504,11,314
9,Cleaner,Virgonagar,13.03733827,77.7303314209,10,282
9,Cleaner,Sanjaynagar,13.0383416871,77.582359314,10,282
9,Cleaner,Gandhinagar,12.9824786237,77.5768661499,1,327
9,Cleaner,DispensaryRoad,12.957783646,77.576469183,1,342
9,Cleaner,GangaNagar,13.0215339157,77.5881099701,10,272
9,Cleaner,DJHalli,12.9737802491,77.5868225098,10,257
9,Cleaner,K.GNagar,12.9737802491,77.5868225098,10,274
9,Cleaner,Rajkunte,13.2967523618,77.5511169434,10,269
9,Cleaner,KumaraKrupa,12.9737802491,77.5868225098,1,332
9,Cleaner,Chamarajpet,12.9737802491,77.5868225098,10,264
9,Cleaner,HRBRLayout,13.0160983226,77.6466464996,10,262
9,Cleaner,K.RMarket,12.9643287856,77.5783038139,1,328
9,Cleaner,VVPuram,12.9522002758,77.5777244568,10,256
9,Cleaner,Murugeshpalya,12.9601466076,77.657289505,11,302
9,Cleaner,Nagarbhavi,12.9721074498,77.5142097473,11,304
9,Cleaner,BrigadeRoad,12.9745748248,77.6076793671,10,274
9,Cleaner,M.GRoad,12.9743657261,77.6130008698,10,266
9,Cleaner,PalaceGuttahalli,12.9960274083,77.5748920441,10,261
9,Cleaner,NandidurgaRoad,12.9996026588,77.6000833511,11,285
9,Cleaner,Bellandur,12.9267703115,77.6498222351,10,279
9,Cleaner,LangfordGardens,12.9629904963,77.5998687744,1,345
9,Cleaner,Shanthinagar,12.9543750866,77.5979804993,1,325
9,Cleaner,KasturiNagar,13.0058958108,77.6576328278,1,340
9,Cleaner,Kodihalli,12.9604811844,77.6465606689,10,266
9,Cleaner,HaudinRoad,12.9737802491,77.5868225098,11,288
9,Cleaner,KRRoad,12.9319987231,77.5737333298,11,291
9,Cleaner,St.JohnsRoad,12.9813077064,77.6117134094,10,274
9,Cleaner,NewThippasandra,12.9776276446,77.6525688171,1,331
9,Cleaner,Gavipuram,12.9737802491,77.5868225098,11,293
9,Cleaner,MahalakshmiLayout,13.0206140544,77.5499153137,11,293
9,Cleaner,RichmondTown,12.963994214,77.603302002,10,270
9,Cleaner,Doddanekundi,12.9759548712,77.6901626587,1,329
9,Cleaner,Hesaraghatta,13.1644052736,77.4862289429,11,295
9,Cleaner,ChurchStreet,12.9754216724,77.6037955284,11,288
9,Cleaner,PalaceCrossRoad,12.9971773483,77.5873160362,11,303
9,Cleaner,St.ThomasTown,12.9737802491,77.5868225098,10,259
9,Cleaner,CommercialStreet,12.9830640803,77.6071643829,1,331
9,Cleaner,Nayandahalli,12.9386491044,77.5232219696,10,265
9,Cleaner,Agaram,12.9570517506,77.6347160339,10,254
9,Cleaner,Kothanur,13.0602486102,77.6412391663,10,280
9,Cleaner,Ejipura,12.9398202224,77.6299953461,10,276
9,Cleaner,OldMadrasRoad,12.9872458729,77.6484918594,10,260
9,Cleaner,HanumanthaNagar,12.9737802491,77.5868225098,10,254
9,Cleaner,PadmanabhaNagar,12.9199104693,77.5541210175,1,340
9,Cleaner,ArakereGate,12.8906076212,77.5986242294,1,321
9,Cleaner,Ramanagaram,12.9737802491,77.5868225098,11,306
9,Cleaner,RaceCourseRoad,12.9615999224,77.6153826714,11,295
9,Cleaner,Vidyaranyapura,13.0818191778,77.5581550598,1,331
9,Cleaner,Rajanukunte,13.1760637235,77.5624895096,1,346
9,Cleaner,Vasanthanagar,12.9928493647,77.5916290283,10,275
9,Cleaner,Krishnarajapuram,13.0027178935,77.6778030396,1,323
9,Cleaner,RichmondRoad,12.9656670678,77.6033234596,11,310
9,Cleaner,Malleswaram,13.0085719201,77.5643348694,10,262
9,Cleaner,Kumbalgodu,12.959226519,77.5697851181,11,303
9,Cleaner,CoxTown,12.9977418624,77.6199102402,1,320
9,Cleaner,Devanhalli,13.2466293486,77.7083587646,11,299
9,Cleaner,Maruthisevanagar,13.0002089827,77.6329994202,10,265
9,Cleaner,Byatarayanapura,13.0622552541,77.6065635681,10,264
9,Cleaner,ResidencyRoad,12.9723583704,77.6077651978,11,300
9,Cleaner,DoubleRoad,12.9737802491,77.5868225098,1,321
9,Cleaner,Bhoopasandra,12.9737802491,77.5868225098,10,270
9,Cleaner,Ulsoor,12.9833149898,77.6148033142,11,286
9,Cleaner,JCRoad,12.9566126124,77.5816297531,1,327
9,Cleaner,MillersRoad,12.9874967782,77.5911140442,10,267
9,Cleaner,HosurRoad,12.9217509333,77.6199531555,11,298
9,Cleaner,FrazerTown,12.9984109144,77.6148462296,1,350
9,Cleaner,Nagawara,12.9737802491,77.5868225098,1,348
9,Cleaner,Shampur,12.9737802491,77.5868225098,10,256
9,Cleaner,LangfordRoad,12.9619449528,77.5989031792,1,320
9,Cleaner,ChandraLayout,12.9496072074,77.5188446045,11,291
9,Cleaner,WheelersRoad,12.9961528566,77.6172065735,1,344
9,Cleaner,KumaraParkWest,12.9737802491,77.5868225098,10,281
9,Cleaner,Viswaneedam,13.0115825085,77.5102615356,10,259
9,Cleaner,RTNagar,13.0209485498,77.5967788696,11,291
9,Cleaner,Bommanahalli,12.9080307849,77.6287078857,1,341
9,Cleaner,MuseumRoad,12.9737802491,77.5868225098,1,336
9,Cleaner,PeenyaIndustrialArea,13.0346624715,77.516784668,10,251
9,Cleaner,Mahadevapura,12.9936856959,77.692565918,10,277
9,Cleaner,MainGuardCrossRoad,12.9798858708,77.6067352295,1,339
9,Cleaner,WaltonRoad,12.9724211005,77.5982272625,1,324
9,Cleaner,Puttenahalli,12.899497142,77.5820159912,10,280
9,Cleaner,Chickpet,12.9707692023,77.57188797,10,260
9,Cleaner,JCNagar,13.0069829837,77.592959404,1,322
9,Cleaner,CubbonPark,12.9737802491,77.5868225098,10,252
9,Cleaner,Konanakunte,12.8834330247,77.564163208,11,305
9,Cleaner,Marathahalli,12.9543750866,77.7011489868,10,257
9,Cleaner,Mathikere,13.0257986821,77.5670814514,11,297
9,Cleaner,Madivala,12.9215836189,77.6280212402,1,321
9,Cleaner,JeevanbheemaNagar,12.9648306423,77.661151886,10,262
9,Cleaner,Jayanagar,12.9324588181,77.5818443298,1,345
9,Cleaner,Indiranagar,12.9729438509,77.6393508911,10,250
9,Cleaner,RajaRajeshwariNagar,12.9127157983,77.510175705,10,254
9,Cleaner,HBRLayout,13.0273038762,77.6271629333,1,318
9,Cleaner,Jalahalli,13.0535596792,77.5420188904,10,282
9,Cleaner,BangaloreCBD,12.9737802491,77.5868225098,10,253
9,Cleaner,MissionRoad,12.9737802491,77.5868225098,1,317
9,Cleaner,ArabicCollege,13.032153884,77.6226997375,1,331
9,Cleaner,Sadahalli,13.2116624326,77.6461315155,11,284
9,Cleaner,Whitefield,12.9794676823,77.7241516113,11,302
9,Cleaner,BTMLayout,12.9147236343,77.6163482666,1,318
9,Cleaner,Rajajinagar,12.9861586136,77.5530052185,1,328
9,Cleaner,Jakkur,13.0781406098,77.5960922241,10,253
9,Cleaner,BannerghattaRoad,12.8333933969,77.5887107849,10,265
9,Cleaner,Seshadripuram,12.9881658579,77.5873374939,10,258
9,Cleaner,Shivajinagar,12.9885840317,77.6048469543,1,318
9,Cleaner,WilsonGarden,12.9443373401,77.6002120972,11,300
9,Cleaner,Koramangala,12.9297818899,77.6214981079,1,335
9,Cleaner,Kammanahalli,13.0266349022,77.6356601715,1,328
9,Cleaner,Hebbal,13.0353314238,77.5988388062,10,277
9,Cleaner,Laggere,13.0166000747,77.5212478638,11,298
9,Cleaner,Banashankari,12.9488543761,77.5457954407,11,307
9,Cleaner,JnanaBharathi,12.945341133,77.5023651123,1,318
9,Cleaner,Basaveshwaranagar,12.995191085,77.5447654724,1,347
9,Cleaner,Brookefield,12.9647469996,77.7232933044,11,308
9,Cleaner,SanjeeviniNagar,12.9737802491,77.5868225098,10,278
9,Cleaner,BensonTown,12.9976164149,77.6039886475,10,258
9,Cleaner,Basavangudi,12.9297400627,77.5709867477,1,330
9,Cleaner,Yeshwanthpur,13.0292271666,77.5456237793,10,275
9,Cleaner,Vimanapura,12.9583482495,77.6679754257,1,348
9,Cleaner,Yelahanka,13.1018831282,77.599697113,10,280
9,Cleaner,Adugodi,12.9475996521,77.606306076,11,314
9,Cleaner,Kadugodi,13.0010452891,77.7262973785,11,290
9,Cleaner,Hennur,13.03733827,77.6517105103,1,326
9,Cleaner,KumaraswamyLayout,12.9060228951,77.5597000122,11,293
9,Cleaner,Kamakshipalya,12.9890022048,77.5219345093,11,312
9,Cleaner,HaralurRoad,12.905813739,77.6628255844,1,345
9,Cleaner,Banaswadi,13.0181889494,77.6450157166,1,331
10,Driver,KalyanNagar,13.0254223821,77.6407241821,11,575
10,Driver,Jayamahal,13.0045159307,77.5982379913,10,484
10,Driver,Kengeri,12.9253481646,77.4841690063,10,506
10,Driver,KasturbaRoad,12.9737802491,77.5948905945,1,603
10,Driver,KumaraParkEast,12.9821858949,77.5864362717,1,614
10,Driver,DoddaballapuraMainRoad,13.1393732508,77.5690984726,11,517
10,Driver,Thyagarajanagar,12.9318732425,77.5670814514,10,488
10,Driver,Kanakapura,12.5451801735,77.4165344238,1,640
10,Driver,BVKIyengarRoad,12.97217018,77.5766944885,10,458
10,Driver,Vijayanagar,12.9709364837,77.5320625305,10,455
10,Driver,K.HRoad,12.9595192748,77.5933027267,11,581
